time(millisecond);datetime(utc);latitude;longitude;height_above_takeoff(feet);height_above_ground_at_drone_location(feet);ground_elevation_at_drone_location(feet);altitude_above_seaLevel(feet);height_sonar(feet);speed(mph);distance(feet);mileage(feet);satellites;gpslevel;voltage(v);max_altitude(feet);max_ascent(feet);max_speed(mph);max_distance(feet); xSpeed(mph); ySpeed(mph); zSpeed(mph); compass_heading(degrees); pitch(degrees); roll(degrees);isPhoto;isVideo;rc_elevator;rc_aileron;rc_throttle;rc_rudder;rc_elevator(percent);rc_aileron(percent);rc_throttle(percent);rc_rudder(percent);gimbal_heading(degrees);gimbal_pitch(degrees);gimbal_roll(degrees);battery_percent;voltageCell1;voltageCell2;voltageCell3;voltageCell4;voltageCell5;voltageCell6;current(A);battery_temperature(f);altitude(feet);ascent(feet);flycStateRaw;flycState;message
1398940;21/03/2025 08:30;-13.025.657;119.404.958;0;Available with any HD 360 subscription;Available with any HD 360 subscription;52.480.852.729.256;0;0.1342164;0;0;28;0;0;52.480.852.729.256;0;0.1342164;0;0;0;0;0;0;0;0;0;1024;1024;1024;1024;0;0;0;0;0;0;0;66;;;;;;;0;32;52.480.852.729.256;0;0;;
1399130;21/03/2025 08:30;-13.025.658;119.404.958;0;;;52.480.852.729.256;0;0.1565858;0.036484909304;0.036484909304;28;0;0;52.480.852.729.256;0;0.1565858;0.036484909304;0;0;0;187.8; 3.9; -0.8;0;0;1024;1024;1024;1024;0;0;0;0;0;0;0;66;;;;;;;0;32;52.480.852.729.256;0;0;;[logger] Opened full log file: /fs/microsd/log/2025-03-21/08_06_58.ulg
1399320;21/03/2025 08:30;-13.025.657;1.194.049.579;104.895.672.648;;;53.529.809.455.736;0;0.1342164;0.036475394868;0.08807579022;28;0;0;53.529.809.455.736;104.895.672.648;0.1565858;0.036484909304;0;0;0;187.8; 3.8; -0.8;0;0;1024;1024;1024;1024;0;0;0;0;0;0;0;66;;;;;;;0;32;53.529.809.455.736;104.895.672.648;0;;
1399520;21/03/2025 08:30;-13.025.657;119.404.958;0.22539698884;;;52.706.249.718.096;0;0.1342164;0;0.124551185088;28;0;0;53.529.809.455.736;104.895.672.648;0.1565858;0.036484909304;0;0;0;187.8; 3.9; -0.8;0;0;1024;1024;1024;1024;0;0;0;0;0;0;0;66;;;;;;;0;32;52.706.249.718.096;0.22539698884;0;;
1399720;21/03/2025 08:30;-13.025.657;1.194.049.579;-114.431.434.108;;;51.336.538.388.176;0;0.223694;0.036475394868;0.16102690804;28;0;0;53.529.809.455.736;104.895.672.648;0.223694;0.036484909304;0;0;0;187.7; 3.9; -0.8;0;0;1024;1024;1024;1024;0;0;0;0;0;0;0;66;;;;;;;0;32;51.336.538.388.176;-114.431.434.108;0;;
1399930;21/03/2025 08:30;-13.025.656;1.194.049.579;-0.32075788428;;;52.160.094.844.976;0;0.0447388;0.051590880916;0.197511817344;28;0;153.531;53.529.809.455.736;104.895.672.648;0.223694;0.051590880916;0;0;0;187.7; 3.9; -0.8;0;0;1024;1024;1024;1024;0;0;0;0;0;0;0;66;;;;;;;0;32;52.160.094.844.976;-0.32075788428;0;;
1400130;21/03/2025 08:30;-13.025.656;1.194.049.578;-169.046.265.252;;;50.790.390.076.736;0;0.0671082;0.081565947492;0.233987212212;28;0;153.531;53.529.809.455.736;104.895.672.648;0.223694;0.081565947492;0;0;0;187.7; 3.9; -0.8;0;0;1024;1024;1024;1024;0;0;0;0;0;0;0;66;;;;;;;0;32;50.790.390.076.736;-169.046.265.252;0;;
1400320;21/03/2025 08:30;-13.025.654;1.194.049.577;-114.431.434.108;;;51.336.538.388.176;0;0.111847;0.154772642748;0.31556595498;28;0;153.531;53.529.809.455.736;104.895.672.648;0.223694;0.154772642748;0;0;0;187.7; 3.9; -0.8;0;0;1024;1024;1024;1024;0;0;0;0;0;0;0;66;;;;;;;0;32;51.336.538.388.176;-114.431.434.108;0;;
1400520;21/03/2025 08:30;-13.025.655;1.194.049.577;0.77154530028;;;53.252.398.029.536;0;0.111847;0.131524938592;0.3520505362;28;0;153.531;53.529.809.455.736;104.895.672.648;0.223694;0.154772642748;0;0;0;187.7; 3.8; -0.9;0;0;1024;1024;1024;1024;0;0;0;0;0;0;0;66;;;;;;;0;32;53.252.398.029.536;0.77154530028;0;;
1400720;21/03/2025 08:30;-13.025.654;1.194.049.577;104.895.672.648;;;53.529.809.455.736;0;0.1342164;0.154772642748;0.38853675784;28;0;153.531;53.529.809.455.736;104.895.672.648;0.223694;0.154772642748;0;0;0;187.7; 3.8; -0.9;0;0;1024;1024;1024;1024;0;0;0;0;0;0;0;66;;;;;;;0;32;53.529.809.455.736;104.895.672.648;0;;
1400920;21/03/2025 08:30;-13.025.654;1.194.049.577;-0.59815946796;;;51.882.693.261.296;0;0.0447388;0.154772642748;0.38853675784;28;0;155.205;53.529.809.455.736;104.895.672.648;0.223694;0.154772642748;0;0;0;187.7; 3.8;-1;0;0;1024;1024;1024;1024;0;0;0;0;0;0;0;66;;;;;;;0;32;51.882.693.261.296;-0.59815946796;0;;
1401130;21/03/2025 08:30;-13.025.653;1.194.049.576;0.77154530028;;;53.252.398.029.536;0;0.0894776;0.20636319558;0.44012796684;28;0;155.205;53.529.809.455.736;104.895.672.648;0.223694;0.20636319558;0;0;0;187.7; 3.8;-1;0;0;1024;1024;1024;1024;0;0;0;0;0;0;0;66;;;;;;;0;32;53.252.398.029.536;0.77154530028;0;;
1401320;21/03/2025 08:30;-13.025.654;1.194.049.576;131.768.705.004;;;53.798.539.779.296;0;0.1789552;0.182394690876;0.47661090764;28;0;155.205;53.798.539.779.296;131.768.705.004;0.223694;0.20636319558;0;0;0;187.6; 3.8;-1;0;0;1024;1024;1024;1024;0;0;0;0;0;0;0;66;;;;;;;0;32;53.798.539.779.296;131.768.705.004;0;;
1401520;21/03/2025 08:30;-13.025.652;1.194.049.575;0.04334317724;;;52.524.195.906.496;0;0.2908022;0.257954076496;0.55818899424;28;0;155.205;53.798.539.779.296;131.768.705.004;0.2908022;0.257954076496;0;0;0;187.6; 3.8;-1;0;0;1024;1024;1024;1024;0;0;0;0;0;0;0;66;;;;;;;0;32;52.524.195.906.496;0.04334317724;0;;
1401720;21/03/2025 08:30;-13.025.652;1.194.049.575;-0.05201115652;;;52.428.841.572.736;0;0.1789552;0.257954076496;0.55818899424;28;0;155.205;53.798.539.779.296;131.768.705.004;0.2908022;0.257954076496;0;0;0;187.6; 3.8; -1.1;0;0;1024;1024;1024;1024;0;0;0;0;0;0;0;66;;;;;;;0;32;52.428.841.572.736;-0.05201115652;0;;
1401920;21/03/2025 08:30;-13.025.653;1.194.049.575;0.4941273124;;;52.974.980.041.656;0;0.111847;0.233580716136;0.59467521588;28;0;15.634;53.798.539.779.296;131.768.705.004;0.2908022;0.257954076496;0;0;0;187.6; 3.8; -1.1;0;0;1024;1024;1024;1024;0;0;0;0;0;0;0;66;;;;;;;0;32;52.974.980.041.656;0.4941273124;0;;
1402130;21/03/2025 08:30;-13.025.652;1.194.049.575;-0.05201115652;;;52.428.841.572.736;0;0.111847;0.257954076496;0.63116143752;28;0;15.634;53.798.539.779.296;131.768.705.004;0.2908022;0.257954076496;0;0;0;187.6; 3.8; -1.1;0;0;1024;1024;1024;1024;0;0;0;0;0;0;0;66;;;;;;;0;32;52.428.841.572.736;-0.05201115652;0;;
1402330;21/03/2025 08:30;-13.025.652;1.194.049.575;0.4941273124;;;52.974.980.041.656;0;0.2013246;0.257954076496;0.63116143752;28;0;15.634;53.798.539.779.296;131.768.705.004;0.2908022;0.257954076496;0;0;0;187.6; 3.8; -1.2;0;0;1024;1024;1024;1024;0;0;0;0;0;0;0;66;;;;;;;0;32;52.974.980.041.656;0.4941273124;0;;
1402520;21/03/2025 08:30;-13.025.651;1.194.049.574;131.768.705.004;;;53.798.539.779.296;0;0.1565858;0.309544957412;0.68274936568;28;0;15.634;53.798.539.779.296;131.768.705.004;0.2908022;0.309544957412;0;0;0;187.5; 3.8; -1.2;0;0;1024;1024;1024;1024;0;0;0;0;0;0;0;66;;;;;;;0;32;53.798.539.779.296;131.768.705.004;0;;
1402720;21/03/2025 08:30;-13.025.651;1.194.049.574;-0.00866469844;;;52.472.188.030.816;0;0.2013246;0.309544957412;0.68274936568;28;0;15.634;53.798.539.779.296;131.768.705.004;0.2908022;0.309544957412;0;0;0;187.5; 3.8; -1.2;0;0;1024;1024;1024;1024;0;0;0;0;0;0;0;66;;;;;;;0;32;52.472.188.030.816;-0.00866469844;0;;
1402920;21/03/2025 08:30;-13.025.652;1.194.049.574;0.22539698884;;;52.706.249.718.096;0;0.223694;0.28491306686;0.71923558732;28;0;155.335;53.798.539.779.296;131.768.705.004;0.2908022;0.309544957412;0;0;0;187.6; 3.8; -1.2;0;0;1024;1024;1024;1024;0;0;0;0;0;0;0;66;;;;;;;0;32;52.706.249.718.096;0.22539698884;0;;
1403130;21/03/2025 08:30;-13.025.653;1.194.049.574;-0.05201115652;;;52.428.841.572.736;0;0.2460634;0.2630495491;0.75572180896;28;0;155.335;53.798.539.779.296;131.768.705.004;0.2908022;0.309544957412;0;0;0;187.5; 3.7; -1.2;0;0;1024;1024;1024;1024;0;0;0;0;0;0;0;66;;;;;;;0;32;52.428.841.572.736;-0.05201115652;0;;
1403330;21/03/2025 08:30;-13.025.651;1.194.049.575;-0.59815946796;;;51.882.693.261.296;0;0.0894776;0.28492619022;0.83729989556;28;0;155.335;53.798.539.779.296;131.768.705.004;0.2908022;0.309544957412;0;0;0;187.5; 3.7; -1.2;0;0;1024;1024;1024;1024;0;0;0;0;0;0;0;66;;;;;;;0;32;51.882.693.261.296;-0.59815946796;0;;
1403530;21/03/2025 08:30;-13.025.652;1.194.049.575;0.77154530028;;;53.252.398.029.536;0;0.223694;0.257954076496;0.87378283636;28;0;155.335;53.798.539.779.296;131.768.705.004;0.2908022;0.309544957412;0;0;0;187.5; 3.9; -1.3;0;0;1024;1024;1024;1024;0;0;0;0;0;0;0;66;;;;;;;0;32;53.252.398.029.536;0.77154530028;0;;
1403720;21/03/2025 08:30;-13.025.651;1.194.049.574;-169.046.265.252;;;50.790.390.076.736;0;0.1342164;0.309544957412;0.92537404536;28;0;155.335;53.798.539.779.296;131.768.705.004;0.2908022;0.309544957412;0;0;0;187.5; 3.9; -1.3;0;0;1024;1024;1024;1024;0;0;0;0;0;0;0;66;;;;;;;0;32;50.790.390.076.736;-169.046.265.252;0;;
1403920;21/03/2025 08:30;-1.302.565;1.194.049.574;0.4941273124;;;52.974.980.041.656;0;0.1342164;0.33633859344;0.961860267;28;0;153.299;53.798.539.779.296;131.768.705.004;0.2908022;0.33633859344;0;0;0;187.5; 3.8; -1.3;0;0;1024;1024;1024;1024;0;0;0;0;0;0;0;65;;;;;;;0;32;52.974.980.041.656;0.4941273124;0;;"[commander] Takeoff detected	"
1404120;21/03/2025 08:30;-13.025.649;1.194.049.572;0.77154530028;;;53.252.398.029.536;0;0.1565858;0.41272639116;104.342.523.024;28;0;153.299;53.798.539.779.296;131.768.705.004;0.2908022;0.41272639116;0;0;0;187.5; 3.8; -1.2;0;0;1024;1024;1024;1024;0;0;0;0;0;0;0;65;;;;;;;0;32;53.252.398.029.536;0.77154530028;0;;
1404330;21/03/2025 08:30;-13.025.649;1.194.049.573;40.571.195.524;;;56.537.972.281.656;0;0.1342164;0.387795288;107.990.160.936;28;0;153.299;56.537.972.281.656;40.571.195.524;0.2908022;0.41272639116;0;0;0;187.5; 3.7; -1.1;0;0;1024;1024;1024;1024;0;0;0;0;0;0;0;65;;;;;;;0;32;56.537.972.281.656;40.571.195.524;0;;
1404530;21/03/2025 08:30;-13.025.649;1.194.049.572;-0.86690619572;;;51.613.946.533.536;0;0.1565858;0.41272639116;111.637.798.848;28;0;153.299;56.537.972.281.656;40.571.195.524;0.2908022;0.41272639116;0;0;0;187.4; 3.7; -1.2;0;0;1024;1024;1024;1024;0;0;0;0;0;0;0;65;;;;;;;0;32;51.613.946.533.536;-0.86690619572;0;;
1404730;21/03/2025 08:30;-13.025.648;1.194.049.572;84.436.354.408;;;60.924.488.170.056;0;0.223694;0.4392880718;115.286.092.928;28;0;153.299;60.924.488.170.056;84.436.354.408;0.2908022;0.4392880718;0;0;0;187.5; 3.7;-1;0;0;1024;1024;1024;1024;0;0;0;0;0;0;0;65;;;;;;;0;32;60.924.488.170.056;84.436.354.408;0;;
1404920;21/03/2025 08:30;-13.025.648;1.194.049.571;46.032.481.788;;;57.084.100.908.056;0;0.0671082;0.46431760016;11.893.373.084;27;0;15.222;60.924.488.170.056;84.436.354.408;0.2908022;0.46431760016;0;0;0;187.4; 3.6;-1;0;0;1024;1024;1024;1024;0;0;0;0;0;0;0;60;;;;;;;0;32;57.084.100.908.056;46.032.481.788;0;;
1405120;21/03/2025 08:30;-13.025.647;1.194.049.571;32.335.466.914;;;55.714.399.420.656;0;0.111847;0.4907972598;122.582.353.004;27;0;15.222;60.924.488.170.056;84.436.354.408;0.2908022;0.4907972598;0;0;0;187.3; 3.6;-1;0;0;1024;1024;1024;1024;0;0;0;0;0;0;0;60;;;;;;;0;32;55.714.399.420.656;32.335.466.914;0;;
1405320;21/03/2025 08:30;-13.025.648;1.194.049.572;-0.59815946796;;;51.882.693.261.296;0;0.3131716;0.4392880718;127.741.473.904;27;0;15.222;60.924.488.170.056;84.436.354.408;0.3131716;0.4907972598;0;0;0;187.4; 3.4; -1.1;0;0;1024;1024;1024;1024;0;0;0;0;0;0;0;60;;;;;;;0;32;51.882.693.261.296;-0.59815946796;0;;
1405520;21/03/2025 08:30;-13.025.648;1.194.049.571;32.335.466.914;;;55.714.399.420.656;0;0.0671082;0.46431760016;131.388.783.732;27;0;15.222;60.924.488.170.056;84.436.354.408;0.3131716;0.4907972598;0;0;0;187.3; 2.8; -1.2;0;0;1024;1024;1024;1024;0;0;0;0;0;0;0;60;;;;;;;0;32;55.714.399.420.656;32.335.466.914;0;;
1405730;21/03/2025 08:30;-13.025.649;1.194.049.571;-0.32075788428;;;52.160.094.844.976;0;0.0671082;0.43927494844;135.037.405.896;27;0;15.222;60.924.488.170.056;84.436.354.408;0.3131716;0.4907972598;0;0;0;187.1; 0.7; -0.6;0;0;1024;1024;1024;1024;0;0;0;0;0;0;0;60;;;;;;;0;32;52.160.094.844.976;-0.32075788428;0;;
1405930;21/03/2025 08:30;-1.302.565;1.194.049.571;186.383.864.232;;;54.344.691.371.576;0;0.223694;0.41592521016;13.868.602.806;27;0;147.393;60.924.488.170.056;84.436.354.408;0.3131716;0.4907972598;0;0;0;186.6; -2.2; -0.6;0;0;1024;1024;1024;1024;0;0;0;0;0;0;0;53;;;;;;;0;32;54.344.691.371.576;186.383.864.232;0;;
1406120;21/03/2025 08:30;-13.025.653;119.404.957;214.124.350.684;;;54.622.096.236.096;0;0.335541;0.39286746664;15.022.310.192;27;0;147.393;60.924.488.170.056;84.436.354.408;0.335541;0.4907972598;0;0;0;186.1; -3.9; -2.4;0;0;1024;1024;1024;1024;0;0;0;0;0;0;0;53;;;;;;;0;32;54.622.096.236.096;214.124.350.684;0;;
1406320;21/03/2025 08:30;-13.025.655;1.194.049.571;67.965.225.272;;;59.277.375.256.456;0;0.1789552;0.33629266168;15.838.091.058;27;0;147.393;60.924.488.170.056;84.436.354.408;0.335541;0.4907972598;0;0;0;184.9; -2.8;-8;0;0;1024;1024;1024;1024;0;0;0;0;0;0;0;53;;;;;;;0;32;59.277.375.256.456;67.965.225.272;0;;
1406520;21/03/2025 08:30;-13.025.657;1.194.049.573;268.739.837.996;;;55.168.251.109.216;0;0.6039738;0.255328748328;16.869.915.238;27;0;147.393;60.924.488.170.056;84.436.354.408;0.6039738;0.4907972598;0;0;0;182.7; 1.5; -6.7;0;0;1024;1024;1024;1024;0;0;0;0;0;0;0;53;;;;;;;0;32;55.168.251.109.216;268.739.837.996;0;;
1406720;21/03/2025 08:30;-1.302.566;1.194.049.576;-0.64150920688;;;51.839.343.522.376;0;0.4250186;0.182394690876;18.417.651.508;27;0;147.393;60.924.488.170.056;84.436.354.408;0.6039738;0.4907972598;0;0;0;181; 2.8; 2.2;0;0;1024;1024;1024;1024;0;0;0;0;0;0;0;53;;;;;;;0;32;51.839.343.522.376;-0.64150920688;0;;
1406920;21/03/2025 08:30;-13.025.661;1.194.049.579;227.995.086.036;;;54.760.803.589.616;0;0.5816044;0.150429138672;195.711.292.352;27;0;14.597;60.924.488.170.056;84.436.354.408;0.6039738;0.4907972598;0;0;0;181.7; 0.1; -0.9;0;0;1024;1024;1024;1024;0;0;0;0;0;0;0;47;;;;;;;0;32;54.760.803.589.616;227.995.086.036;0;;
1407130;21/03/2025 08:30;-13.025.665;119.404.958;43.345.145.744;;;56.815.367.303.656;0;0.8500372;0.291879602516;210.754.271.836;28;0;14.597;60.924.488.170.056;84.436.354.408;0.8500372;0.4907972598;0;0;0;183.6;1; -4.1;0;0;1024;1024;1024;1024;0;0;0;0;0;0;0;47;;;;;;;0;32;56.815.367.303.656;43.345.145.744;0;;
1407320;21/03/2025 08:30;-13.025.668;1.194.049.581;5.704.232.466;;;58.185.085.195.256;0;0.2908022;0.40298885804;222.291.345.696;28;0;14.597;60.924.488.170.056;84.436.354.408;0.8500372;0.4907972598;0;0;0;185.1; 1.7; -3.4;0;0;1024;1024;1024;1024;0;0;0;0;0;0;0;47;;;;;;;0;32;58.185.085.195.256;5.704.232.466;0;;
1407520;21/03/2025 08:30;-13.025.672;1.194.049.581;0.22539698884;;;52.706.249.718.096;0;0.7381902;0.54848755036;236.885.506.268;28;0;14.597;60.924.488.170.056;84.436.354.408;0.8500372;0.54848755036;0;0;-0.223694;186.4; 2.1; -2.2;0;0;1024;1024;1024;1024;0;0;0;0;0;0;0;47;;;;;;;0;32;52.706.249.718.096;0.22539698884;0;;
1407720;21/03/2025 08:30;-13.025.674;119.404.958;-0.86690619572;;;51.613.946.533.536;0;0.3579104;0.620242802;245.043.314.928;28;0;14.597;60.924.488.170.056;84.436.354.408;0.8500372;0.620242802;0;0;-0.223694;186.8; 1.7; -0.6;0;0;1024;1024;1024;1024;0;0;0;0;0;0;0;47;;;;;;;0;32;51.613.946.533.536;-0.86690619572;0;;
1407920;21/03/2025 08:30;-13.025.676;1.194.049.578;0.22539698884;;;52.706.249.718.096;0;0.447388;0.69704070472;255.361.556.728;28;0;145.607;60.924.488.170.056;84.436.354.408;0.8500372;0.69704070472;0;0;0;187.7; 1.8; 0.3;0;0;1024;1024;1024;1024;0;0;0;0;0;0;0;45;;;;;;;0;32;52.706.249.718.096;0.22539698884;0;;
1408120;21/03/2025 08:30;-13.025.679;1.194.049.577;159.510.175.708;;;54.075.954.486.336;0;0.4026492;0.81009188944;266.898.630.588;28;0;145.607;60.924.488.170.056;84.436.354.408;0.8500372;0.81009188944;0;0;0;190; 1.9;1;0;0;1024;1024;1024;1024;0;0;0;0;0;0;0;45;;;;;;;0;32;54.075.954.486.336;159.510.175.708;0;;
1408320;21/03/2025 08:30;-13.025.679;119.404.957;0.4941273124;;;52.974.980.041.656;0;0.4250186;0.8816601332;292.431.439.804;28;0;145.607;60.924.488.170.056;84.436.354.408;0.8500372;0.8816601332;0;0;0;193.9; 2.4; 2.1;0;0;1024;1024;1024;1024;0;0;0;0;0;0;0;45;;;;;;;0;32;52.974.980.041.656;0.4941273124;0;;
1408520;21/03/2025 08:30;-1.302.568;1.194.049.564;0.4941273124;;;52.974.980.041.656;0;1.230.317;102.214.242.116;314.618.776.472;27;0;145.607;60.924.488.170.056;84.436.354.408;1.230.317;102.214.242.116;-0.223694;0;0;198.9; 2.7; 1.7;0;0;1024;1024;1024;1024;0;0;0;0;0;0;0;45;;;;;;;0;32;52.974.980.041.656;0.4941273124;0;;
1408720;21/03/2025 08:30;-13.025.681;1.194.049.553;43.345.145.744;;;56.815.367.303.656;0;0.894776;131.782.156.448;35.490.814.784;28;0;145.607;60.924.488.170.056;84.436.354.408;1.230.317;131.782.156.448;0;0;0;203.4; 2.4; 0.7;0;0;1024;1024;1024;1024;0;0;0;0;0;0;0;45;;;;;;;0;32;56.815.367.303.656;43.345.145.744;0;;
1408920;21/03/2025 08:30;-13.025.679;1.194.049.546;214.124.350.684;;;54.622.096.236.096;0;13.645.334;147.725.726.512;3.814.632.668;28;0;147.597;60.924.488.170.056;84.436.354.408;13.645.334;147.725.726.512;-0.223694;0;0;206.7; 0.8; 0.1;0;0;1024;1024;1024;1024;0;0;0;0;0;0;0;43;;;;;;;0;32;54.622.096.236.096;214.124.350.684;0;;
1409110;21/03/2025 08:30;-13.025.677;1.194.049.531;214.124.350.684;;;54.622.096.236.096;0;13.645.334;193.051.843.448;43.666.011.896;27;0;147.597;60.924.488.170.056;84.436.354.408;13.645.334;193.051.843.448;-0.223694;0;0;208.5; -0.8; -0.3;0;0;1024;1024;1024;1024;0;0;0;0;0;0;0;43;;;;;;;0;32;54.622.096.236.096;214.124.350.684;0;;
1409320;21/03/2025 08:30;-13.025.675;1.194.049.519;87.123.690.452;;;61.193.221.774.456;0;14.092.722;231.990.164.904;48.103.347.996;27;0;147.597;61.193.221.774.456;87.123.690.452;14.092.722;231.990.164.904;-0.223694;0;0;210.6;-1; -2.3;0;0;1024;1024;1024;1024;0;0;0;0;0;0;0;43;;;;;;;0;32;61.193.221.774.456;87.123.690.452;0;;
1409530;21/03/2025 08:30;-13.025.675;1.194.049.513;4.741.962.094;;;57.222.814.823.256;0;11.408.394;25.305.611.046;5.029.199.636;27;0;147.597;61.193.221.774.456;87.123.690.452;14.092.722;25.305.611.046;-0.223694;0;0;213.2; 1.2; -4.5;0;0;1024;1024;1024;1024;0;0;0;0;0;0;0;43;;;;;;;0;32;57.222.814.823.256;4.741.962.094;0;;
1409720;21/03/2025 08:30;-13.025.675;11.940.495;37.883.531.396;;;56.269.205.868.856;0;10.737.312;299.103.027.944;55.033.794.412;27;0;147.597;61.193.221.774.456;87.123.690.452;14.092.722;299.103.027.944;0;0;0;214.4; 2.4; -4.8;0;0;1024;1024;1024;1024;0;0;0;0;0;0;0;43;;;;;;;0;32;56.269.205.868.856;37.883.531.396;0;;
1409920;21/03/2025 08:30;-13.025.676;1.194.049.496;7.620.078.984;;;60.100.931.713.256;0;0.894776;314.138.461.496;56.537.731.468;27;0;144.947;61.193.221.774.456;87.123.690.452;14.092.722;314.138.461.496;0;0;0;214.5;2; -3.3;0;0;1024;1024;1024;1024;0;0;0;0;0;0;0;42;;;;;;;0;32;60.100.931.713.256;7.620.078.984;0;;
1410120;21/03/2025 08:30;-13.025.679;1.194.049.489;43.345.145.744;;;56.815.367.303.656;0;0.782929;34.149.279.308;5.931.594.678;28;0;144.947;61.193.221.774.456;87.123.690.452;14.092.722;34.149.279.308;0;0;0;213.9; 0.9; -1.3;0;0;1024;1024;1024;1024;0;0;0;0;0;0;0;42;;;;;;;0;32;56.815.367.303.656;43.345.145.744;0;;
1410320;21/03/2025 08:30;-1.302.568;1.194.049.482;214.124.350.684;;;54.622.096.236.096;0;0.671082;36.717.848.944;61.895.015.104;28;0;144.947;61.193.221.774.456;87.123.690.452;14.092.722;36.717.848.944;0;0;0;213.1; -0.5; 0.4;0;0;1024;1024;1024;1024;0;0;0;0;0;0;0;42;;;;;;;0;32;54.622.096.236.096;214.124.350.684;0;;
1410530;21/03/2025 08:30;-13.025.681;1.194.049.477;40.571.195.524;;;56.537.972.281.656;0;0.9395148;38.576.772.888;637.549.233;28;0;144.947;61.193.221.774.456;87.123.690.452;14.092.722;38.576.772.888;0;0;0;212.1; -0.9; -0.8;0;0;1024;1024;1024;1024;0;0;0;0;0;0;0;42;;;;;;;0;32;56.537.972.281.656;40.571.195.524;0;;
1410720;21/03/2025 08:30;-13.025.685;1.194.049.473;39.010.499.936;;;56.381.902.722.856;0;0.671082;40.343.505.228;6.581.857.166;28;0;144.947;61.193.221.774.456;87.123.690.452;14.092.722;40.343.505.228;0;0;0;211.6; -0.6; -1.9;0;0;1024;1024;1024;1024;0;0;0;0;0;0;0;42;;;;;;;0;32;56.381.902.722.856;39.010.499.936;0;;
1410920;21/03/2025 08:30;-13.025.687;1.194.049.467;214.124.350.684;;;54.622.096.236.096;0;12.750.558;4.264.599.874;68.125.658.348;28;0;147.356;61.193.221.774.456;87.123.690.452;14.092.722;4.264.599.874;-0.223694;0;0;211.5; 0.7; -2.6;0;0;1024;1024;1024;1024;0;0;0;0;0;0;0;42;;;;;;;0;32;54.622.096.236.096;214.124.350.684;0;;
1411120;21/03/2025 08:30;-13.025.693;1.194.049.457;5.704.232.466;;;58.185.085.195.256;0;11.855.782;46.748.032.992;72.379.595.492;28;0;147.356;61.193.221.774.456;87.123.690.452;14.092.722;46.748.032.992;0;0;0;211.4; 1.3; -2.6;0;0;1024;1024;1024;1024;0;0;0;0;0;0;0;42;;;;;;;0;32;58.185.085.195.256;5.704.232.466;0;;
1411330;21/03/2025 08:30;-130.257;1.194.049.448;59.729.660.704;;;58.453.818.799.656;0;1.342.164;50.639.109.232;7.653.871.636;28;0;147.356;61.193.221.774.456;87.123.690.452;14.092.722;50.639.109.232;-0.223694;0;0;210.5; 2.3; -3.9;0;0;1024;1024;1024;1024;0;0;0;0;0;0;0;42;;;;;;;0;32;58.453.818.799.656;59.729.660.704;0;;
1411530;21/03/2025 08:30;-13.025.702;1.194.049.446;54.268.046.356;;;57.907.657.364.856;0;0.5816044;51.561.025.272;7.757.054.054;28;0;147.356;61.193.221.774.456;87.123.690.452;14.092.722;51.561.025.272;0;0;0;209.7; 2.1;-4;0;0;1024;1024;1024;1024;0;0;0;0;0;0;0;42;;;;;;;0;32;57.907.657.364.856;54.268.046.356;0;;
1411730;21/03/2025 08:30;-13.025.709;119.404.944;40.571.195.524;;;56.537.972.281.656;0;10.961.006;54.476.051.612;80.934.057.708;28;0;147.356;61.193.221.774.456;87.123.690.452;14.092.722;54.476.051.612;0;0;0;209.1; 1.6; -3.4;0;0;1024;1024;1024;1024;0;0;0;0;0;0;0;42;;;;;;;0;32;56.537.972.281.656;40.571.195.524;0;;
1411920;21/03/2025 08:30;-13.025.714;1.194.049.436;40.571.195.524;;;56.537.972.281.656;0;12.079.476;56.491.799.708;83.270.015.788;28;0;145.812;61.193.221.774.456;87.123.690.452;14.092.722;56.491.799.708;0;0;0;208.8; 1.4;-3;0;0;1024;1024;1024;1024;0;0;0;0;0;0;0;41;;;;;;;0;32;56.537.972.281.656;40.571.195.524;0;;
1412120;21/03/2025 08:30;-13.025.721;1.194.049.433;51.060.697.172;;;57.586.922.446.456;0;0.894776;58.482.941.504;86.048.559.184;28;0;145.812;61.193.221.774.456;87.123.690.452;14.092.722;58.482.941.504;0;0;0;208.8; 1.6; -2.7;0;0;1024;1024;1024;1024;0;0;0;0;0;0;0;41;;;;;;;0;32;57.586.922.446.456;51.060.697.172;0;;
1412320;21/03/2025 08:30;-1.302.573;119.404.943;62.503.610.924;;;58.731.213.821.656;0;11.408.394;60.851.707.984;895.095.173;28;0;145.812;61.193.221.774.456;87.123.690.452;14.092.722;60.851.707.984;0;0;0;209.3;2; -2.4;0;0;1024;1024;1024;1024;0;0;0;0;0;0;0;41;;;;;;;0;32;58.731.213.821.656;62.503.610.924;0;;
1412520;21/03/2025 08:30;-13.025.733;1.194.049.428;-169.046.265.252;;;50.790.390.076.736;0;0.6934514;61.990.159.464;9.082.513.414;28;0;145.812;61.193.221.774.456;87.123.690.452;14.092.722;61.990.159.464;0;0;0;210.6; 1.4; -2.6;0;0;1024;1024;1024;1024;0;0;0;0;0;0;0;41;;;;;;;0;32;50.790.390.076.736;-169.046.265.252;0;;
1412730;21/03/2025 08:30;-13.025.741;1.194.049.425;43.345.145.744;;;56.815.367.303.656;0;0.8276678;6.430.938.526;93.942.260.224;27;0;145.812;61.193.221.774.456;87.123.690.452;14.092.722;6.430.938.526;0;0;0;213.3; 1.3; -2.7;0;0;1024;1024;1024;1024;0;0;0;0;0;0;0;41;;;;;;;0;32;56.815.367.303.656;43.345.145.744;0;;
1412930;21/03/2025 08:30;-13.025.745;1.194.049.423;46.032.481.788;;;57.084.100.908.056;0;0.9618842;6.565.288.924;95.573.821.956;27;0;146.305;61.193.221.774.456;87.123.690.452;14.092.722;6.565.288.924;0;0;0;215.7; 1.8; -2.2;0;0;1024;1024;1024;1024;0;0;0;0;0;0;0;41;;;;;;;0;32;57.084.100.908.056;46.032.481.788;0;;
1413120;21/03/2025 08:30;-13.025.753;119.404.942;65.190.946.968;;;58.999.947.426.056;0;0.8052984;68.064.634.724;9.869.094.804;26;0;146.305;61.193.221.774.456;87.123.690.452;14.092.722;68.064.634.724;0;0;0;218.2; 2.7; -1.6;0;0;1024;1024;1024;1024;0;0;0;0;0;0;0;41;;;;;;;0;32;58.999.947.426.056;65.190.946.968;0;;
1413320;21/03/2025 08:30;-13.025.761;1.194.049.418;296.480.324.448;;;55.445.655.973.736;0;0.8500372;70.224.083.612;10.169.947.832;26;0;146.305;61.193.221.774.456;87.123.690.452;14.092.722;70.224.083.612;0;0;0;219; 3.1; -1.5;0;0;1024;1024;1024;1024;0;0;0;0;0;0;0;41;;;;;;;0;32;55.445.655.973.736;296.480.324.448;0;;
1413520;21/03/2025 08:30;-13.025.764;1.194.049.417;-0.86690619572;;;51.613.946.533.536;0;0.671082;71.126.314.612;102.853.349.748;26;0;146.305;61.193.221.774.456;87.123.690.452;14.092.722;71.126.314.612;0;0;0;218.1; 3.1; -0.9;0;0;1024;1024;1024;1024;0;0;0;0;0;0;0;41;;;;;;;0;32;51.613.946.533.536;-0.86690619572;0;;
1413720;21/03/2025 08:30;-13.025.769;1.194.049.415;54.268.046.356;;;57.907.657.364.856;0;0.6934514;7.274.606.532;10.481.791.674;27;0;146.305;61.193.221.774.456;87.123.690.452;14.092.722;7.274.606.532;0;0;0;216.1; 2.2; -1.3;0;0;1024;1024;1024;1024;0;0;0;0;0;0;0;41;;;;;;;0;32;57.907.657.364.856;54.268.046.356;0;;
1413920;21/03/2025 08:30;-1.302.577;1.194.049.415;214.124.350.684;;;54.622.096.236.096;0;0.3802798;72.951.445.904;105.182.746.148;27;0;145.198;61.193.221.774.456;87.123.690.452;14.092.722;72.951.445.904;0;0;0;213.7; 1.6; -1.9;0;0;1024;1024;1024;1024;0;0;0;0;0;0;0;40;;;;;;;0;32;54.622.096.236.096;214.124.350.684;0;;
1414130;21/03/2025 08:30;-13.025.772;1.194.049.415;65.190.946.968;;;58.999.947.426.056;0;0.2460634;73.366.472.164;105.912.404.964;27;0;145.198;61.193.221.774.456;87.123.690.452;14.092.722;73.366.472.164;0;0;0;211.1; 1.3; -2.4;0;0;1024;1024;1024;1024;0;0;0;0;0;0;0;40;;;;;;;0;32;58.999.947.426.056;65.190.946.968;0;;
1414320;21/03/2025 08:30;-13.025.777;1.194.049.415;0.77154530028;;;53.252.398.029.536;0;0.4250186;74.424.871.148;107.736.880.088;27;0;145.198;61.193.221.774.456;87.123.690.452;14.092.722;74.424.871.148;0;0;0;209.7; 0.8; -2.2;0;0;1024;1024;1024;1024;0;0;0;0;0;0;0;40;;;;;;;0;32;53.252.398.029.536;0.77154530028;0;;
1414520;21/03/2025 08:30;-13.025.779;1.194.049.414;296.480.324.448;;;55.445.655.973.736;0;0.4250186;75.149.936.788;108.552.496.912;27;0;145.198;61.193.221.774.456;87.123.690.452;14.092.722;75.149.936.788;0;0;0;209.2; 0.5; -1.7;0;0;1024;1024;1024;1024;0;0;0;0;0;0;0;40;;;;;;;0;32;55.445.655.973.736;296.480.324.448;0;;
1414720;21/03/2025 08:30;-13.025.782;1.194.049.413;145.639.440.356;;;53.937.247.132.816;0;0.4026492;76.095.146.792;10.970.636.834;27;0;145.198;61.193.221.774.456;87.123.690.452;14.092.722;76.095.146.792;0;0;0;209.1; 0.6; -1.8;0;0;1024;1024;1024;1024;0;0;0;0;0;0;0;40;;;;;;;0;32;53.937.247.132.816;145.639.440.356;0;;
1414920;21/03/2025 08:30;-13.025.785;1.194.049.412;46.032.481.788;;;57.084.100.908.056;0;0.559235;77.045.934.224;110.859.911.684;27;0;146.109;61.193.221.774.456;87.123.690.452;14.092.722;77.045.934.224;0;0;0;208.6;1; -2.5;0;0;1024;1024;1024;1024;0;0;0;0;0;0;0;39;;;;;;;0;32;57.084.100.908.056;46.032.481.788;0;;
1415120;21/03/2025 08:30;-13.025.789;119.404.941;-0.32075788428;;;52.160.094.844.976;0;0.5368656;7.851.378.204;112.491.473.416;27;0;146.109;61.193.221.774.456;87.123.690.452;14.092.722;7.851.378.204;0;0;0;206.7; 1.1; -2.7;0;0;1024;1024;1024;1024;0;0;0;0;0;0;0;39;;;;;;;0;32;52.160.094.844.976;-0.32075788428;0;;
1415330;21/03/2025 08:30;-13.025.793;1.194.049.406;35.109.581.176;;;55.991.810.846.856;0;0.3802798;80.561.682.368;114.555.121.776;26;0;146.109;61.193.221.774.456;87.123.690.452;14.092.722;80.561.682.368;0;0;0;203.3; 0.9; -2.9;0;0;1024;1024;1024;1024;0;0;0;0;0;0;0;39;;;;;;;0;32;55.991.810.846.856;35.109.581.176;0;;
1415520;21/03/2025 08:30;-13.025.795;1.194.049.405;62.503.610.924;;;58.731.213.821.656;0;0.4921268;812.992.152;115.371.066.684;27;0;146.109;61.193.221.774.456;87.123.690.452;14.092.722;812.992.152;0;0;0;201.5; 0.9; -3.1;0;0;1024;1024;1024;1024;0;0;0;0;0;0;0;39;;;;;;;0;32;58.731.213.821.656;62.503.610.924;0;;
1415720;21/03/2025 08:30;-13.025.799;1.194.049.402;35.109.581.176;;;55.991.810.846.856;0;0.5368656;83.063.650.952;11.719.488.564;27;0;146.109;61.193.221.774.456;87.123.690.452;14.092.722;83.063.650.952;0;0;0;199.7;1;-3;0;0;1024;1024;1024;1024;0;0;0;0;0;0;0;39;;;;;;;0;32;55.991.810.846.856;35.109.581.176;0;;
1415920;21/03/2025 08:30;-13.025.803;1.194.049.402;241.865.821.388;;;54.899.510.943.136;0;0.782929;83.981.629.984;118.654.531.356;27;0;146.444;61.193.221.774.456;87.123.690.452;14.092.722;83.981.629.984;0;0;0;198; 1.3; -2.5;0;0;1024;1024;1024;1024;0;0;0;0;0;0;0;39;;;;;;;0;32;54.899.510.943.136;241.865.821.388;0;;
1416120;21/03/2025 08:30;-13.025.805;11.940.494;257.469.496.428;;;55.055.547.693.536;0;0.2684328;85.008.532.904;119.686.355.536;27;0;146.444;61.193.221.774.456;87.123.690.452;14.092.722;85.008.532.904;0;0;0;196.5; 1.5; -2.3;0;0;1024;1024;1024;1024;0;0;0;0;0;0;0;39;;;;;;;0;32;55.055.547.693.536;257.469.496.428;0;;
1416330;21/03/2025 08:30;-13.025.811;1.194.049.398;51.494.096.136;;;57.630.262.342.856;0;0.6934514;86.971.131.392;121.993.770.308;27;0;146.444;61.193.221.774.456;87.123.690.452;14.092.722;86.971.131.392;0;0;0;194.8;2; -2.8;0;0;1024;1024;1024;1024;0;0;0;0;0;0;0;39;;;;;;;0;32;57.630.262.342.856;51.494.096.136;0;;
1416530;21/03/2025 08:30;-13.025.813;1.194.049.396;241.865.821.388;;;54.899.510.943.136;0;0.447388;87.999.346.648;123.025.594.488;27;0;146.444;61.193.221.774.456;87.123.690.452;14.092.722;87.999.346.648;0;0;0;193.5; 1.9;-3;0;0;1024;1024;1024;1024;0;0;0;0;0;0;0;39;;;;;;;0;32;54.899.510.943.136;241.865.821.388;0;;
1416720;21/03/2025 08:30;-13.025.814;1.194.049.396;65.190.946.968;;;58.999.947.426.056;0;0.2908022;88.235.895.212;123.390.423.896;27;0;146.444;61.193.221.774.456;87.123.690.452;14.092.722;88.235.895.212;0;0;0;192.7; 1.7; -3.1;0;0;1024;1024;1024;1024;0;0;0;0;0;0;0;39;;;;;;;0;32;58.999.947.426.056;65.190.946.968;0;;
1416920;21/03/2025 08:30;-13.025.814;1.194.049.395;186.383.864.232;;;54.344.691.371.576;0;0.2013246;8.851.378.236;123.755.253.304;27;0;14.61;61.193.221.774.456;87.123.690.452;14.092.722;8.851.378.236;0;0;0;192.6; 1.7; -3.4;0;0;1024;1024;1024;1024;0;0;0;0;0;0;0;38;;;;;;;0;32;54.344.691.371.576;186.383.864.232;0;;
1417120;21/03/2025 08:30;-13.025.817;1.194.049.394;59.729.660.704;;;58.453.818.799.656;0;0.223694;89.501.971.368;124.908.796.648;27;0;14.61;61.193.221.774.456;87.123.690.452;14.092.722;89.501.971.368;0;0;0;192.3; 1.5; -3.4;0;0;1024;1024;1024;1024;0;0;0;0;0;0;0;38;;;;;;;0;32;58.453.818.799.656;59.729.660.704;0;;
1417320;21/03/2025 08:30;-13.025.818;1.194.049.394;296.480.324.448;;;55.445.655.973.736;0;0.1342164;89.740.488.436;125.273.626.056;27;0;14.61;61.193.221.774.456;87.123.690.452;14.092.722;89.740.488.436;0;0;0;191.9; 1.2; -2.1;0;0;1024;1024;1024;1024;0;0;0;0;0;0;0;38;;;;;;;0;32;55.445.655.973.736;296.480.324.448;0;;
1417520;21/03/2025 08:30;-13.025.819;1.194.049.394;236.664.705.736;;;54.847.499.786.616;0;0.2684328;89.979.661.672;125.638.455.464;27;0;14.61;61.193.221.774.456;87.123.690.452;14.092.722;89.979.661.672;0;0;0;192.6; 1.3; -1.3;0;0;1024;1024;1024;1024;0;0;0;0;0;0;0;38;;;;;;;0;32;54.847.499.786.616;236.664.705.736;0;;
1417720;21/03/2025 08:30;-13.025.821;1.194.049.392;0.77154530028;;;53.252.398.029.536;0;0.1565858;91.009.189.264;126.670.279.644;27;0;14.61;61.193.221.774.456;87.123.690.452;14.092.722;91.009.189.264;0;0;0;194.1; 1.7; -2.2;0;0;1024;1024;1024;1024;0;0;0;0;0;0;0;38;;;;;;;0;32;53.252.398.029.536;0.77154530028;0;;
1417920;21/03/2025 08:30;-13.025.822;1.194.049.392;40.571.195.524;;;56.537.972.281.656;0;0.1342164;91.249.346.752;127.035.109.052;27;0;146.165;61.193.221.774.456;87.123.690.452;14.092.722;91.249.346.752;0;0;0;196.1; 1.6; -2.8;0;0;1024;1024;1024;1024;0;0;0;0;0;0;0;39;;;;;;;0;32;56.537.972.281.656;40.571.195.524;0;;
1418120;21/03/2025 08:30;-13.025.822;119.404.939;-14.217.192.056;;;51.059.133.523.656;0;0.2908022;91.798.887.452;127.764.767.868;27;0;146.165;61.193.221.774.456;87.123.690.452;14.092.722;91.798.887.452;0;0;0;197.2; 1.1; -2.5;0;0;1024;1024;1024;1024;0;0;0;0;0;0;0;39;;;;;;;0;32;51.059.133.523.656;-14.217.192.056;0;;
1418320;21/03/2025 08:30;-13.025.823;119.404.939;7.620.078.984;;;60.100.931.713.256;0;0.1342164;92.038.388.772;128.129.597.276;28;0;146.165;61.193.221.774.456;87.123.690.452;14.092.722;92.038.388.772;0;0;0;197.7;1; -2.2;0;0;1024;1024;1024;1024;0;0;0;0;0;0;0;39;;;;;;;0;32;60.100.931.713.256;7.620.078.984;0;;
1418530;21/03/2025 08:30;-13.025.824;1.194.049.387;296.480.324.448;;;55.445.655.973.736;0;0.3802798;9.310.367.752;12.928.314.062;28;0;146.165;61.193.221.774.456;87.123.690.452;14.092.722;9.310.367.752;0;0;0;197.9; 1.4; -2.1;0;0;1024;1024;1024;1024;0;0;0;0;0;0;0;39;;;;;;;0;32;55.445.655.973.736;296.480.324.448;0;;
1418730;21/03/2025 08:30;-13.025.824;1.194.049.387;54.268.046.356;;;57.907.657.364.856;0;0.223694;9.310.367.752;12.928.314.062;28;0;146.165;61.193.221.774.456;87.123.690.452;14.092.722;9.310.367.752;0;0;0;198.2; 1.3; -2.3;0;0;1024;1024;1024;1024;0;0;0;0;0;0;0;39;;;;;;;0;32;57.907.657.364.856;54.268.046.356;0;;
1418930;21/03/2025 08:30;-13.025.824;1.194.049.386;0.77154530028;;;53.252.398.029.536;0;0.223694;93.379.596.164;129.647.970.028;28;0;145.961;61.193.221.774.456;87.123.690.452;14.092.722;93.379.596.164;0;0;0;199.2; 0.7; -2.4;0;0;1024;1024;1024;1024;0;0;0;0;0;0;0;38;;;;;;;0;32;53.252.398.029.536;0.77154530028;0;;
1419120;21/03/2025 08:30;-13.025.823;1.194.049.385;35.109.581.176;;;55.991.810.846.856;0;0.0223694;93.419.622.412;130.163.718.076;28;0;145.961;61.193.221.774.456;87.123.690.452;14.092.722;93.419.622.412;0;0;0;200.5; 0.5; -1.9;0;0;1024;1024;1024;1024;0;0;0;0;0;0;0;38;;;;;;;0;32;55.991.810.846.856;35.109.581.176;0;;
1419320;21/03/2025 08:30;-13.025.822;1.194.049.383;51.494.096.136;;;57.630.262.342.856;0;0.1789552;93.741.472.816;1.309.793.349;28;0;145.961;61.193.221.774.456;87.123.690.452;14.092.722;93.741.472.816;0;0;0;201.3; -0.2; -1.9;0;0;1024;1024;1024;1024;0;0;0;0;0;0;0;38;;;;;;;0;32;57.630.262.342.856;51.494.096.136;0;;
1419520;21/03/2025 08:30;-13.025.822;1.194.049.382;98.046.919.148;;;62.285.544.644.056;0;0.2684328;94.021.328.468;131.344.164.308;28;0;145.961;62.285.544.644.056;98.046.919.148;14.092.722;94.021.328.468;0;0;0;202; -0.5;-2;0;0;1024;1024;1024;1024;0;0;0;0;0;0;0;38;;;;;;;0;32;62.285.544.644.056;98.046.919.148;0;;
1419730;21/03/2025 08:30;-13.025.824;1.194.049.382;32.335.466.914;;;55.714.399.420.656;0;0.1789552;94.490.160.504;132.073.823.124;28;0;145.961;62.285.544.644.056;98.046.919.148;14.092.722;94.490.160.504;0;0;0;202.3;0; -1.7;0;0;1024;1024;1024;1024;0;0;0;0;0;0;0;38;;;;;;;0;32;55.714.399.420.656;32.335.466.914;0;;
1419930;21/03/2025 08:30;-13.025.825;1.194.049.382;65.190.946.968;;;58.999.947.426.056;0;0.3131716;94.725.724.816;132.438.652.532;28;0;144.947;62.285.544.644.056;98.046.919.148;14.092.722;94.725.724.816;0;0;0;202; -0.1; -1.7;0;0;1024;1024;1024;1024;0;0;0;0;0;0;0;38;;;;;;;0;32;58.999.947.426.056;65.190.946.968;0;;
1420130;21/03/2025 08:30;-13.025.826;119.404.938;37.883.531.396;;;56.269.205.868.856;0;0.1565858;9.551.837.576;133.254.269.356;28;0;144.947;62.285.544.644.056;98.046.919.148;14.092.722;9.551.837.576;0;0;0;201.4; -0.2; -1.9;0;0;1024;1024;1024;1024;0;0;0;0;0;0;0;38;;;;;;;0;32;56.269.205.868.856;37.883.531.396;0;;
1420320;21/03/2025 08:30;-13.025.829;1.194.049.379;296.480.324.448;;;55.445.655.973.736;0;0.4026492;96.505.252.432;134.408.140.784;28;0;144.947;62.285.544.644.056;98.046.919.148;14.092.722;96.505.252.432;0;0;0;200.4; 0.1; -1.6;0;0;1024;1024;1024;1024;0;0;0;0;0;0;0;38;;;;;;;0;32;55.445.655.973.736;296.480.324.448;0;;
1420520;21/03/2025 08:30;-13.025.831;1.194.049.379;-0.59815946796;;;51.882.693.261.296;0;0.4697574;96.981.302.316;1.351.377.996;28;0;144.947;62.285.544.644.056;98.046.919.148;14.092.722;96.981.302.316;0;0;0;199.1; 0.3; -1.5;0;0;1024;1024;1024;1024;0;0;0;0;0;0;0;38;;;;;;;0;32;51.882.693.261.296;-0.59815946796;0;;
1420720;21/03/2025 08:30;-13.025.835;1.194.049.379;48.806.760.092;;;57.361.528.738.456;0;0.4250186;9.794.291.652;136.597.117.232;27;0;144.947;62.285.544.644.056;98.046.919.148;14.092.722;9.794.291.652;0;0;0;196.9; 0.3; -1.5;0;0;1024;1024;1024;1024;0;0;0;0;0;0;0;38;;;;;;;0;32;57.361.528.738.456;48.806.760.092;0;;
1420920;21/03/2025 08:30;-13.025.836;1.194.049.379;-114.431.434.108;;;51.336.538.388.176;0;0.3579104;98.185.370.596;13.696.194.664;27;0;145.868;62.285.544.644.056;98.046.919.148;14.092.722;98.185.370.596;0;0;0;194.5; -0.1; -1.4;0;0;1024;1024;1024;1024;0;0;0;0;0;0;0;37;;;;;;;0;32;51.336.538.388.176;-114.431.434.108;0;;
1421130;21/03/2025 08:30;-13.025.839;1.194.049.377;241.865.821.388;;;54.899.510.943.136;0;0.4921268;994.586.646;138.277.235.396;27;0;145.868;62.285.544.644.056;98.046.919.148;14.092.722;994.586.646;0;0;0;191.4; -0.5; -1.6;0;0;1024;1024;1024;1024;0;0;0;0;0;0;0;37;;;;;;;0;32;54.899.510.943.136;241.865.821.388;0;;
1421330;21/03/2025 08:30;-13.025.845;1.194.049.376;70.739.175.492;;;59.554.770.278.456;0;0.7158208;101.201.118.724;140.496.723.656;26;0;145.868;62.285.544.644.056;98.046.919.148;14.092.722;101.201.118.724;0;0;0;189.3; -0.1; -1.9;0;0;1024;1024;1024;1024;0;0;0;0;0;0;0;37;;;;;;;0;32;59.554.770.278.456;70.739.175.492;0;;
1421520;21/03/2025 08:30;-13.025.848;1.194.049.376;307.750.337.932;;;55.558.356.108.576;0;0.559235;101.946.197.488;14.159.121.188;26;0;145.868;62.285.544.644.056;98.046.919.148;14.092.722;101.946.197.488;0;0;0;187.9; 0.5; -2.2;0;0;1024;1024;1024;1024;0;0;0;0;0;0;0;37;;;;;;;0;32;55.558.356.108.576;307.750.337.932;0;;
1421720;21/03/2025 08:30;-13.025.853;1.194.049.374;241.865.821.388;;;54.899.510.943.136;0;0.8724066;103.729.005.944;143.555.778.872;26;0;145.868;62.285.544.644.056;98.046.919.148;14.092.722;103.729.005.944;0;0;0;186.9; 0.4; -1.9;0;0;1024;1024;1024;1024;0;0;0;0;0;0;0;37;;;;;;;0;32;54.899.510.943.136;241.865.821.388;0;;
1421920;21/03/2025 08:30;-13.025.856;1.194.049.373;9.535.925.502;;;62.016.778.231.256;0;0.3579104;1.047.490.191;1.447.096.503;26;0;146.388;62.285.544.644.056;98.046.919.148;14.092.722;1.047.490.191;0;0;0;186.9; 0.6; -1.7;0;0;1024;1024;1024;1024;0;0;0;0;0;0;0;37;;;;;;;0;32;62.016.778.231.256;9.535.925.502;0;;
1422120;21/03/2025 08:30;-13.025.861;1.194.049.372;7.620.078.984;;;60.100.931.713.256;0;0.5368656;106.281.827.548;14.656.988.658;26;0;146.388;62.285.544.644.056;98.046.919.148;14.092.722;106.281.827.548;0;0;0;188.7; 1.8;-2;0;0;1024;1024;1024;1024;0;0;0;0;0;0;0;37;;;;;;;0;32;60.100.931.713.256;7.620.078.984;0;;
1422310;21/03/2025 08:30;-13.025.865;119.404.937;0.77154530028;;;53.252.398.029.536;0;0.4697574;107.825.790.852;148.201.448.312;26;0;146.388;62.285.544.644.056;98.046.919.148;14.092.722;107.825.790.852;0;0;0;191.6; 2.6; -1.7;0;0;1024;1024;1024;1024;0;0;0;0;0;0;0;37;;;;;;;0;32;53.252.398.029.536;0.77154530028;0;;
1422520;21/03/2025 08:30;-13.025.869;1.194.049.369;-0.59815946796;;;51.882.693.261.296;0;0.6263432;109.114.832.888;149.705.713.452;26;0;146.388;62.285.544.644.056;98.046.919.148;14.092.722;109.114.832.888;0;0;0;195; 1.8; -1.2;0;0;1024;1024;1024;1024;0;0;0;0;0;0;0;37;;;;;;;0;32;51.882.693.261.296;-0.59815946796;0;;
1422720;21/03/2025 08:30;-13.025.871;1.194.049.369;300.814.970.256;;;55.489.002.431.816;0;0.2013246;109.633.533.692;150.435.700.352;26;0;146.388;62.285.544.644.056;98.046.919.148;14.092.722;109.633.533.692;0;0;0;196.5; 1.5; -1.3;0;0;1024;1024;1024;1024;0;0;0;0;0;0;0;37;;;;;;;0;32;55.489.002.431.816;300.814.970.256;0;;
1422920;21/03/2025 08:30;-13.025.872;1.194.049.367;36.496.720.328;;;56.130.524.762.056;0;0.2908022;110.405.843.428;151.251.317.176;26;0;14.531;62.285.544.644.056;98.046.919.148;14.092.722;110.405.843.428;0;0;0;197.1; 1.2; -1.8;0;0;1024;1024;1024;1024;0;0;0;0;0;0;0;37;;;;;;;0;32;56.130.524.762.056;36.496.720.328;0;;
1423120;21/03/2025 08:30;-13.025.874;1.194.049.365;925.853.048;;;61.739.383.209.256;0;0.2013246;111.437.667.608;152.283.141.356;26;0;14.531;62.285.544.644.056;98.046.919.148;14.092.722;111.437.667.608;0;0;0;197; 0.7; -1.8;0;0;1024;1024;1024;1024;0;0;0;0;0;0;0;37;;;;;;;0;32;61.739.383.209.256;925.853.048;0;;
1423310;21/03/2025 08:30;-13.025.877;1.194.049.362;5.704.232.466;;;58.185.085.195.256;0;0.4921268;112.985.239.836;153.830.713.584;26;0;14.531;62.285.544.644.056;98.046.919.148;14.092.722;112.985.239.836;0;0;0;197; 0.2; -2.3;0;0;1024;1024;1024;1024;0;0;0;0;0;0;0;37;;;;;;;0;32;58.185.085.195.256;5.704.232.466;0;;
1423530;21/03/2025 08:30;-13.025.878;1.194.049.361;43.345.145.744;;;56.815.367.303.656;0;0.447388;113.500.987.884;154.346.789.716;26;0;14.531;62.285.544.644.056;98.046.919.148;14.092.722;113.500.987.884;0;0;0;197.3;1; -2.1;0;0;1024;1024;1024;1024;0;0;0;0;0;0;0;37;;;;;;;0;32;56.815.367.303.656;43.345.145.744;0;;
1423720;21/03/2025 08:30;-1.302.588;119.404.936;59.729.660.704;;;58.453.818.799.656;0;0.2908022;11.427.657.846;15.516.240.654;26;0;14.531;62.285.544.644.056;98.046.919.148;14.092.722;11.427.657.846;0;0;0;198.9; 1.6; -2.1;0;0;1024;1024;1024;1024;0;0;0;0;0;0;0;37;;;;;;;0;32;58.453.818.799.656;59.729.660.704;0;;
1423920;21/03/2025 08:30;-13.025.882;1.194.049.361;-0.32075788428;;;52.160.094.844.976;0;0.4697574;114.542.654.584;155.978.351.448;26;0;144.324;62.285.544.644.056;98.046.919.148;14.092.722;114.542.654.584;0;0;0;200.6; 1.9; -1.8;0;0;1024;1024;1024;1024;0;0;0;0;0;0;0;38;;;;;;;0;32;52.160.094.844.976;-0.32075788428;0;;
1424120;21/03/2025 08:30;-13.025.884;1.194.049.359;296.480.324.448;;;55.445.655.973.736;0;0.0447388;11.557.415.068;157.010.175.628;26;0;144.324;62.285.544.644.056;98.046.919.148;14.092.722;11.557.415.068;0;0;0;202.9; 2.7; -1.4;0;0;1024;1024;1024;1024;0;0;0;0;0;0;0;38;;;;;;;0;32;55.445.655.973.736;296.480.324.448;0;;
1424320;21/03/2025 08:30;-13.025.888;1.194.049.359;32.335.466.914;;;55.714.399.420.656;0;0.335541;116.624.347.564;15.846.949.326;27;0;144.324;62.285.544.644.056;98.046.919.148;14.092.722;116.624.347.564;0;0;0;204.7; 2.5; -1.2;0;0;1024;1024;1024;1024;0;0;0;0;0;0;0;38;;;;;;;0;32;55.714.399.420.656;32.335.466.914;0;;
1424530;21/03/2025 08:30;-13.025.888;1.194.049.359;37.883.531.396;;;56.269.205.868.856;0;0.1789552;116.624.347.564;15.846.949.326;26;0;144.324;62.285.544.644.056;98.046.919.148;14.092.722;116.624.347.564;0;0;0;204.7; 1.7; -1.1;0;0;1024;1024;1024;1024;0;0;0;0;0;0;0;38;;;;;;;0;32;56.269.205.868.856;37.883.531.396;0;;
1424730;21/03/2025 08:30;-1.302.589;1.194.049.361;0.22539698884;;;52.706.249.718.096;0;0.2908022;116.652.234.704;15.950.131.744;26;0;144.324;62.285.544.644.056;98.046.919.148;14.092.722;116.652.234.704;0;0;0;203.1; 2.1; -0.4;0;0;1024;1024;1024;1024;0;0;0;0;0;0;0;38;;;;;;;0;32;52.706.249.718.096;0.22539698884;0;;
1424920;21/03/2025 08:30;-13.025.889;1.194.049.361;54.268.046.356;;;57.907.657.364.856;0;0.2013246;116.386.486.664;159.866.146.848;26;0;144.928;62.285.544.644.056;98.046.919.148;14.092.722;116.652.234.704;0;0;0;201.9;2; -0.7;0;0;1024;1024;1024;1024;0;0;0;0;0;0;0;37;;;;;;;0;32;57.907.657.364.856;54.268.046.356;0;;
1425120;21/03/2025 08:30;-13.025.887;1.194.049.361;-41.524.607.628;;;48.328.391.966.456;0;0.2013246;115.856.959.088;160.595.805.664;27;0;144.928;62.285.544.644.056;98.046.919.148;14.092.722;116.652.234.704;0;0;0;202.4;1; -1.1;0;0;1024;1024;1024;1024;0;0;0;0;0;0;0;37;;;;;;;0;32;48.328.391.966.456;-41.524.607.628;0;;
1425320;21/03/2025 08:30;-13.025.887;1.194.049.363;-0.86690619572;;;51.613.946.533.536;0;0.223694;115.354.990.568;16.132.546.448;27;0;144.928;62.285.544.644.056;98.046.919.148;14.092.722;116.652.234.704;0;0;0;203.8;1; -1.2;0;0;1024;1024;1024;1024;0;0;0;0;0;0;0;37;;;;;;;0;32;51.613.946.533.536;-0.86690619572;0;;
1425520;21/03/2025 08:30;-13.025.888;1.194.049.364;41.958.006.592;;;56.676.653.388.456;0;0.1789552;115.371.394.768;161.841.212.528;27;0;144.928;62.285.544.644.056;98.046.919.148;14.092.722;116.652.234.704;0;0;0;206; 0.8; -1.3;0;0;1024;1024;1024;1024;0;0;0;0;0;0;0;37;;;;;;;0;32;56.676.653.388.456;41.958.006.592;0;;
1425730;21/03/2025 08:30;-13.025.889;1.194.049.365;214.124.350.684;;;54.622.096.236.096;0;0.2013246;115.390.095.556;16.235.728.866;27;0;144.928;62.285.544.644.056;98.046.919.148;14.092.722;116.652.234.704;0;0;0;208.4; 0.4; -0.7;0;0;1024;1024;1024;1024;0;0;0;0;0;0;0;37;;;;;;;0;32;54.622.096.236.096;214.124.350.684;0;;
1425930;21/03/2025 08:30;-1.302.589;1.194.049.365;159.510.175.708;;;54.075.954.486.336;0;0.2684328;1.156.578.121;162.722.118.068;27;0;145.691;62.285.544.644.056;98.046.919.148;14.092.722;116.652.234.704;0;0;0;209.8; 0.8; 0.1;0;0;1024;1024;1024;1024;0;0;0;0;0;0;0;37;;;;;;;0;32;54.075.954.486.336;159.510.175.708;0;;
1426120;21/03/2025 08:30;-13.025.892;1.194.049.366;214.124.350.684;;;54.622.096.236.096;0;0.223694;115.949.478.776;163.537.734.892;27;0;145.691;62.285.544.644.056;98.046.919.148;14.092.722;116.652.234.704;0;0;0;210.9; 0.4; 0.7;0;0;1024;1024;1024;1024;0;0;0;0;0;0;0;37;;;;;;;0;32;54.622.096.236.096;214.124.350.684;0;;
1426320;21/03/2025 08:30;-13.025.895;1.194.049.367;32.335.466.914;;;55.714.399.420.656;0;0.3802798;116.517.720.264;16.469.160.632;27;0;145.691;62.285.544.644.056;98.046.919.148;14.092.722;116.652.234.704;0;0;0;211.3; -0.4; 1.5;0;0;1024;1024;1024;1024;0;0;0;0;0;0;0;37;;;;;;;0;32;55.714.399.420.656;32.335.466.914;0;;
1426520;21/03/2025 08:30;-13.025.895;1.194.049.367;0.22539698884;;;52.706.249.718.096;0;0.1565858;116.517.720.264;16.469.160.632;27;0;145.691;62.285.544.644.056;98.046.919.148;14.092.722;116.652.234.704;0;0;0;211.2;-1; 2.2;0;0;1024;1024;1024;1024;0;0;0;0;0;0;0;37;;;;;;;0;32;52.706.249.718.096;0.22539698884;0;;
1426730;21/03/2025 08:30;-13.025.897;1.194.049.366;34.676.182.212;;;55.948.470.950.456;0;0.1565858;11.730.479.378;165.507.223.144;27;0;145.691;62.285.544.644.056;98.046.919.148;14.092.722;11.730.479.378;0;0;0;209.3; -0.1; 1.8;0;0;1024;1024;1024;1024;0;0;0;0;0;0;0;37;;;;;;;0;32;55.948.470.950.456;34.676.182.212;0;;
1426930;21/03/2025 08:30;-13.025.899;1.194.049.364;214.124.350.684;;;54.622.096.236.096;0;0.3579104;11.833.497.754;166.539.047.324;26;0;143.403;62.285.544.644.056;98.046.919.148;14.092.722;11.833.497.754;0;0;0;207.2; 0.6; 0.4;0;0;1024;1024;1024;1024;0;0;0;0;0;0;0;43;;;;;;;0;32;54.622.096.236.096;214.124.350.684;0;;
1427130;21/03/2025 08:30;-130.259;1.194.049.361;0.4941273124;;;52.974.980.041.656;0;0.4921268;11.933.727.416;167.692.590.668;26;0;143.403;62.285.544.644.056;98.046.919.148;14.092.722;11.933.727.416;0;0;0;205;1; -0.2;0;0;1024;1024;1024;1024;0;0;0;0;0;0;0;43;;;;;;;0;32;52.974.980.041.656;0.4941273124;0;;
1427320;21/03/2025 08:30;-13.025.902;1.194.049.356;214.124.350.684;;;54.622.096.236.096;0;0.6263432;121.103.022.248;169.656.829.576;26;0;143.403;62.285.544.644.056;98.046.919.148;14.092.722;121.103.022.248;0;0;0;203.6; 1.2; -1.2;0;0;1024;1024;1024;1024;0;0;0;0;0;0;0;43;;;;;;;0;32;54.622.096.236.096;214.124.350.684;0;;
1427520;21/03/2025 08:30;-13.025.903;1.194.049.353;0.77154530028;;;53.252.398.029.536;0;0.6487126;122.111.880.548;17.081.037.292;26;0;143.403;62.285.544.644.056;98.046.919.148;14.092.722;122.111.880.548;0;0;0;203.2; 1.4; -1.6;0;0;1024;1024;1024;1024;0;0;0;0;0;0;0;43;;;;;;;0;32;53.252.398.029.536;0.77154530028;0;;
1427720;21/03/2025 08:30;-13.025.906;1.194.049.348;40.571.195.524;;;56.537.972.281.656;0;0.559235;124.154.531.532;172.937.341.492;26;0;143.403;62.285.544.644.056;98.046.919.148;14.092.722;124.154.531.532;0;0;0;203.2; 2.3; -1.5;0;0;1024;1024;1024;1024;0;0;0;0;0;0;0;43;;;;;;;0;32;56.537.972.281.656;40.571.195.524;0;;
1427920;21/03/2025 08:30;-13.025.908;1.194.049.344;296.480.324.448;;;55.445.655.973.736;0;0.8052984;125.684.387.224;174.568.903.224;26;0;143.821;62.285.544.644.056;98.046.919.148;14.092.722;125.684.387.224;0;0;0;203.3; 2.5; -1.5;0;0;1024;1024;1024;1024;0;0;0;0;0;0;0;44;;;;;;;0;32;55.445.655.973.736;296.480.324.448;0;;
1428130;21/03/2025 08:30;-1.302.591;119.404.934;292.146.006.724;;;55.402.312.796.496;0;0.3802798;127.216.539.504;176.200.136.872;26;0;143.821;62.285.544.644.056;98.046.919.148;14.092.722;127.216.539.504;0;0;0;203.1; 3.8; -1.4;0;0;1024;1024;1024;1024;0;0;0;0;0;0;0;44;;;;;;;0;32;55.402.312.796.496;292.146.006.724;0;;
1428330;21/03/2025 08:30;-13.025.913;1.194.049.338;268.739.837.996;;;55.168.251.109.216;0;0.3802798;128.512.799.388;177.515.425.628;25;0;143.821;62.285.544.644.056;98.046.919.148;14.092.722;128.512.799.388;0;0;0;202.6; 3.9; -1.4;0;0;1024;1024;1024;1024;0;0;0;0;0;0;0;44;;;;;;;0;32;55.168.251.109.216;268.739.837.996;0;;
1428520;21/03/2025 08:30;-13.025.915;1.194.049.335;46.032.481.788;;;57.084.100.908.056;0;0.5816044;129.795.279.744;178.830.714.384;25;0;143.821;62.285.544.644.056;98.046.919.148;14.092.722;129.795.279.744;0;0;0;202; 2.6; -1.8;0;0;1024;1024;1024;1024;0;0;0;0;0;0;0;44;;;;;;;0;32;57.084.100.908.056;46.032.481.788;0;;
1428720;21/03/2025 08:30;-13.025.914;1.194.049.331;268.739.837.996;;;55.168.251.109.216;0;0.1789552;130.541.670.844;18.033.465.144;25;0;143.821;62.285.544.644.056;98.046.919.148;14.092.722;130.541.670.844;0;0;0;201.7;3; -2.5;0;0;1024;1024;1024;1024;0;0;0;0;0;0;0;44;;;;;;;0;32;55.168.251.109.216;268.739.837.996;0;;
1428920;21/03/2025 08:30;-13.025.914;119.404.933;37.883.531.396;;;56.269.205.868.856;0;0.2908022;13.079.560.786;180.699.480.848;25;0;143.952;62.285.544.644.056;98.046.919.148;14.092.722;13.079.560.786;0;0;0;201.7;3;-3;0;0;1024;1024;1024;1024;0;0;0;0;0;0;0;37;;;;;;;0;32;56.269.205.868.856;37.883.531.396;0;;
1429120;21/03/2025 08:30;-13.025.915;1.194.049.329;0.77154530028;;;53.252.398.029.536;0;0.1565858;131.311.683.992;181.215.228.896;25;0;143.952;62.285.544.644.056;98.046.919.148;14.092.722;131.311.683.992;0;0;0;201.8; 3.1; -3.1;0;0;1024;1024;1024;1024;0;0;0;0;0;0;0;37;;;;;;;0;32;53.252.398.029.536;0.77154530028;0;;
1429320;21/03/2025 08:30;-13.025.915;1.194.049.329;-169.046.265.252;;;50.790.390.076.736;0;0.111847;131.311.683.992;181.215.228.896;26;0;143.952;62.285.544.644.056;98.046.919.148;14.092.722;131.311.683.992;0;0;0;201.4; 3.6; -3.1;0;0;1024;1024;1024;1024;0;0;0;0;0;0;0;37;;;;;;;0;32;50.790.390.076.736;-169.046.265.252;0;;
1429530;21/03/2025 08:30;-13.025.915;1.194.049.331;131.768.705.004;;;53.798.539.779.296;0;0.2908022;13.080.380.996;181.944.887.712;26;0;143.952;62.285.544.644.056;98.046.919.148;14.092.722;131.311.683.992;0;0;0;200.1; 2.6; -3.1;0;0;1024;1024;1024;1024;0;0;0;0;0;0;0;37;;;;;;;0;32;53.798.539.779.296;131.768.705.004;0;;
1429720;21/03/2025 08:30;-13.025.915;1.194.049.334;48.806.760.092;;;57.361.528.738.456;0;0.4697574;130.046.592.088;183.039.047.852;26;0;143.952;62.285.544.644.056;98.046.919.148;14.092.722;131.311.683.992;0;0;0;199.1; 1.9; -2.4;0;0;1024;1024;1024;1024;0;0;0;0;0;0;0;37;;;;;;;0;32;57.361.528.738.456;48.806.760.092;0;;
1429920;21/03/2025 08:30;-13.025.915;1.194.049.335;186.383.864.232;;;54.344.691.371.576;0;0.111847;129.795.279.744;18.340.387.726;26;0;14.397;62.285.544.644.056;98.046.919.148;14.092.722;131.311.683.992;0;0;0;197.6; 2.2; -1.7;0;0;1024;1024;1024;1024;0;0;0;0;0;0;0;36;;;;;;;0;32;54.344.691.371.576;186.383.864.232;0;;
1430120;21/03/2025 08:30;-13.025.915;119.404.934;5.704.232.466;;;58.185.085.195.256;0;0.3802798;128.546.263.956;185.227.696.216;26;0;14.397;62.285.544.644.056;98.046.919.148;14.092.722;131.311.683.992;0;0;0;195.7; 2.2; -1.4;0;0;1024;1024;1024;1024;0;0;0;0;0;0;0;36;;;;;;;0;32;58.185.085.195.256;5.704.232.466;0;;
1430320;21/03/2025 08:30;-13.025.916;1.194.049.341;-0.32075788428;;;52.160.094.844.976;0;0.1342164;128.565.948.996;185.743.444.264;26;0;14.397;62.285.544.644.056;98.046.919.148;14.092.722;131.311.683.992;0;0;0;193; 2.1; -1.6;0;0;1024;1024;1024;1024;0;0;0;0;0;0;0;36;;;;;;;0;32;52.160.094.844.976;-0.32075788428;0;;
1430520;21/03/2025 08:30;-13.025.918;1.194.049.341;0.77154530028;;;53.252.398.029.536;0;0.2460634;129.103.350.588;18.647.310.308;26;0;14.397;62.285.544.644.056;98.046.919.148;14.092.722;131.311.683.992;0;0;0;190.1; 2.6; -1.8;0;0;1024;1024;1024;1024;0;0;0;0;0;0;0;36;;;;;;;0;32;53.252.398.029.536;0.77154530028;0;;
1430730;21/03/2025 08:30;-1.302.592;1.194.049.343;32.335.466.914;;;55.714.399.420.656;0;0.2908022;129.153.219.356;18.750.492.726;26;0;14.397;62.285.544.644.056;98.046.919.148;14.092.722;131.311.683.992;0;0;0;188; 3.4; -1.3;0;0;1024;1024;1024;1024;0;0;0;0;0;0;0;36;;;;;;;0;32;55.714.399.420.656;32.335.466.914;0;;
1430920;21/03/2025 08:30;-1.302.592;1.194.049.343;286.944.562.988;;;55.350.298.359.136;0;0.0894776;129.153.219.356;18.750.492.726;26;0;143.747;62.285.544.644.056;98.046.919.148;14.092.722;131.311.683.992;0;0;0;187.9; 3.6; -1.7;0;0;1024;1024;1024;1024;0;0;0;0;0;0;0;36;;;;;;;0;32;55.350.298.359.136;286.944.562.988;0;;
1431120;21/03/2025 08:30;-13.025.922;1.194.049.344;268.739.837.996;;;55.168.251.109.216;0;0.111847;129.453.416.216;188.320.872.168;26;0;143.747;62.285.544.644.056;98.046.919.148;14.092.722;131.311.683.992;0;0;0;188.8; 3.6; -1.6;0;0;1024;1024;1024;1024;0;0;0;0;0;0;0;36;;;;;;;0;32;55.168.251.109.216;268.739.837.996;0;;
1431320;21/03/2025 08:30;-13.025.923;1.194.049.343;59.729.660.704;;;58.453.818.799.656;0;0.1342164;129.968.180.012;188.836.620.216;26;0;143.747;62.285.544.644.056;98.046.919.148;14.092.722;131.311.683.992;0;0;0;191.4; 4.1; -1.3;0;0;1024;1024;1024;1024;0;0;0;0;0;0;0;36;;;;;;;0;32;58.453.818.799.656;59.729.660.704;0;;
1431520;21/03/2025 08:30;-13.025.923;1.194.049.343;43.345.145.744;;;56.815.367.303.656;0;0.111847;129.968.180.012;188.836.620.216;26;0;143.747;62.285.544.644.056;98.046.919.148;14.092.722;131.311.683.992;0;0;0;194.5; 4.4; -1.5;0;0;1024;1024;1024;1024;0;0;0;0;0;0;0;36;;;;;;;0;32;56.815.367.303.656;43.345.145.744;0;;
1431730;21/03/2025 08:30;-13.025.923;1.194.049.342;59.729.660.704;;;58.453.818.799.656;0;0.2684328;130.211.290.256;189.201.449.624;26;0;143.747;62.285.544.644.056;98.046.919.148;14.092.722;131.311.683.992;0;0;0;197.8; 3.4; -1.7;0;0;1024;1024;1024;1024;0;0;0;0;0;0;0;36;;;;;;;0;32;58.453.818.799.656;59.729.660.704;0;;
1431930;21/03/2025 08:30;-13.025.923;1.194.049.342;186.383.864.232;;;54.344.691.371.576;0;0.2684328;130.211.290.256;189.201.449.624;26;0;144.714;62.285.544.644.056;98.046.919.148;14.092.722;131.311.683.992;0;0;0;200.2; 2.7; -1.6;0;0;1024;1024;1024;1024;0;0;0;0;0;0;0;36;;;;;;;0;32;54.344.691.371.576;186.383.864.232;0;;
1432120;21/03/2025 08:30;-13.025.921;1.194.049.341;35.109.581.176;;;55.991.810.846.856;0;0.4250186;129.912.733.816;190.017.394.532;26;0;144.714;62.285.544.644.056;98.046.919.148;14.092.722;131.311.683.992;0;0;0;201.4; 2.4;-2;0;0;1024;1024;1024;1024;0;0;0;0;0;0;0;36;;;;;;;0;32;55.991.810.846.856;35.109.581.176;0;;
1432320;21/03/2025 08:30;-13.025.918;1.194.049.338;40.571.195.524;;;56.537.972.281.656;0;0.671082;129.844.820.428;19.156.496.676;26;0;144.714;62.285.544.644.056;98.046.919.148;14.092.722;131.311.683.992;0;0;0;201.5; 2.3; -1.8;0;0;1024;1024;1024;1024;0;0;0;0;0;0;0;36;;;;;;;0;32;56.537.972.281.656;40.571.195.524;0;;
1432520;21/03/2025 08:30;-13.025.917;1.194.049.338;65.190.946.968;;;58.999.947.426.056;0;0.335541;129.577.431.968;191.929.796.168;26;0;144.714;62.285.544.644.056;98.046.919.148;14.092.722;131.311.683.992;0;0;0;201.3; 1.5; -1.5;0;0;1024;1024;1024;1024;0;0;0;0;0;0;0;36;;;;;;;0;32;58.999.947.426.056;65.190.946.968;0;;
1432730;21/03/2025 08:30;-13.025.914;1.194.049.336;-0.59815946796;;;51.882.693.261.296;0;0.3579104;129.279.531.696;193.245.084.924;26;0;144.714;62.285.544.644.056;98.046.919.148;14.092.722;131.311.683.992;0;0;0;200.6; 0.8; -2.6;0;0;1024;1024;1024;1024;0;0;0;0;0;0;0;36;;;;;;;0;32;51.882.693.261.296;-0.59815946796;0;;
1432930;21/03/2025 08:30;-13.025.913;1.194.049.336;51.494.096.136;;;57.630.262.342.856;0;0.2908022;129.015.095.992;193.610.242.416;26;0;145.607;62.285.544.644.056;98.046.919.148;14.092.722;131.311.683.992;0;0;0;200; 0.9; -3.8;0;0;1024;1024;1024;1024;0;0;0;0;0;0;0;36;;;;;;;0;32;57.630.262.342.856;51.494.096.136;0;;
1433130;21/03/2025 08:30;-13.025.911;1.194.049.334;0.4941273124;;;52.974.980.041.656;0;0.2684328;128.994.098.616;194.641.738.512;27;0;145.607;62.285.544.644.056;98.046.919.148;14.092.722;131.311.683.992;0;0;0;200.6; 1.6; -2.8;0;0;1024;1024;1024;1024;0;0;0;0;0;0;0;36;;;;;;;0;32;52.974.980.041.656;0.4941273124;0;;
1433320;21/03/2025 08:30;-13.025.913;1.194.049.332;0.4941273124;;;52.974.980.041.656;0;0.447388;130.025.922.796;195.673.562.692;26;0;145.607;62.285.544.644.056;98.046.919.148;14.092.722;131.311.683.992;0;0;0;201.9; 1.8;-2;0;0;1024;1024;1024;1024;0;0;0;0;0;0;0;36;;;;;;;0;32;52.974.980.041.656;0.4941273124;0;;
1433520;21/03/2025 08:30;-13.025.914;1.194.049.332;32.335.466.914;;;55.714.399.420.656;0;0.4697574;130.288.061.912;196.038.720.184;25;0;145.607;62.285.544.644.056;98.046.919.148;14.092.722;131.311.683.992;0;0;0;202.9;2; -2.1;0;0;1024;1024;1024;1024;0;0;0;0;0;0;0;36;;;;;;;0;32;55.714.399.420.656;32.335.466.914;0;;
1433720;21/03/2025 08:30;-13.025.916;1.194.049.331;59.729.660.704;;;58.453.818.799.656;0;0.1565858;131.066.933.328;196.854.337.008;26;0;145.607;62.285.544.644.056;98.046.919.148;14.092.722;131.311.683.992;0;0;0;203; 2.2; -2.3;0;0;1024;1024;1024;1024;0;0;0;0;0;0;0;36;;;;;;;0;32;58.453.818.799.656;59.729.660.704;0;;
1433920;21/03/2025 08:30;-13.025.918;1.194.049.329;51.494.096.136;;;57.630.262.342.856;0;0.6039738;132.098.429.424;197.886.161.188;26;0;144.724;62.285.544.644.056;98.046.919.148;14.092.722;132.098.429.424;0;0;0;203.3;2; -3.1;0;0;1024;1024;1024;1024;0;0;0;0;0;0;0;35;;;;;;;0;32;57.630.262.342.856;51.494.096.136;0;;
1434130;21/03/2025 08:30;-1.302.592;1.194.049.329;67.965.225.272;;;59.277.375.256.456;0;0.5368656;132.625.332.328;198.615.820.004;26;0;144.724;62.285.544.644.056;98.046.919.148;14.092.722;132.625.332.328;0;0;0;203.1; 3.9; -0.8;0;0;1024;1024;1024;1024;0;0;0;0;0;0;0;35;;;;;;;0;32;59.277.375.256.456;67.965.225.272;0;;
1434330;21/03/2025 08:30;-13.025.922;119.404.933;40.571.195.524;;;56.537.972.281.656;0;0.2908022;132.903.875.644;199.431.764.912;26;0;144.724;62.285.544.644.056;98.046.919.148;14.092.722;132.903.875.644;0;0;0;202; 2.2; -2.9;0;0;1024;1024;1024;1024;0;0;0;0;0;0;0;35;;;;;;;0;32;56.537.972.281.656;40.571.195.524;0;;
1434520;21/03/2025 08:30;-13.025.923;119.404.933;46.032.481.788;;;57.084.100.908.056;0;0.1565858;1.331.692.956;19.979.659.432;26;0;144.724;62.285.544.644.056;98.046.919.148;14.092.722;1.331.692.956;0;0;0;200.8; 1.8; -4.1;0;0;1024;1024;1024;1024;0;0;0;0;0;0;0;35;;;;;;;0;32;57.084.100.908.056;46.032.481.788;0;;
1434720;21/03/2025 08:30;-13.025.925;1.194.049.329;40.571.195.524;;;56.537.972.281.656;0;0.2460634;133.951.119.772;200.612.211.144;26;0;144.724;62.285.544.644.056;98.046.919.148;14.092.722;133.951.119.772;0;0;0;199.9; 2.2; -4.1;0;0;1024;1024;1024;1024;0;0;0;0;0;0;0;35;;;;;;;0;32;56.537.972.281.656;40.571.195.524;0;;
1434920;21/03/2025 08:30;-13.025.923;119.404.933;241.865.821.388;;;54.899.510.943.136;0;0.3131716;1.331.692.956;201.428.156.052;26;0;144.482;62.285.544.644.056;98.046.919.148;14.092.722;133.951.119.772;0;0;0;198.8; 2.1; -3.3;0;0;1024;1024;1024;1024;0;0;0;0;0;0;0;35;;;;;;;0;32;54.899.510.943.136;241.865.821.388;0;;
1435130;21/03/2025 08:30;-13.025.925;1.194.049.334;131.768.705.004;;;53.798.539.779.296;0;0.1789552;132.711.290.336;2.030.593.897;26;0;144.482;62.285.544.644.056;98.046.919.148;14.092.722;133.951.119.772;0;0;0;198;2; -1.9;0;0;1024;1024;1024;1024;0;0;0;0;0;0;0;35;;;;;;;0;32;53.798.539.779.296;131.768.705.004;0;;
1435330;21/03/2025 08:30;-13.025.925;1.194.049.338;32.335.466.914;;;55.714.399.420.656;0;0.3579104;131.729.334.924;204.518.379.248;26;0;144.482;62.285.544.644.056;98.046.919.148;14.092.722;133.951.119.772;0;0;0;197.5;2; -1.4;0;0;1024;1024;1024;1024;0;0;0;0;0;0;0;35;;;;;;;0;32;55.714.399.420.656;32.335.466.914;0;;
1435520;21/03/2025 08:30;-13.025.928;1.194.049.338;5.704.232.466;;;58.185.085.195.256;0;0.4697574;132.543.639.412;205.612.867.472;26;0;144.482;62.285.544.644.056;98.046.919.148;14.092.722;133.951.119.772;0;0;0;197.4; 1.9; -1.1;0;0;1024;1024;1024;1024;0;0;0;0;0;0;0;35;;;;;;;0;32;58.185.085.195.256;5.704.232.466;0;;
1435720;21/03/2025 08:30;-13.025.929;1.194.049.342;241.865.821.388;;;54.899.510.943.136;0;0.3802798;131.851.054.088;207.116.804.528;26;0;144.482;62.285.544.644.056;98.046.919.148;14.092.722;133.951.119.772;0;0;0;197.5; 1.4; -0.6;0;0;1024;1024;1024;1024;0;0;0;0;0;0;0;35;;;;;;;0;32;54.899.510.943.136;241.865.821.388;0;;
1435920;21/03/2025 08:30;-13.025.929;1.194.049.344;-0.86690619572;;;51.613.946.533.536;0;0.3579104;131.371.723.364;207.846.463.344;26;0;143.366;62.285.544.644.056;98.046.919.148;14.092.722;133.951.119.772;0;0;0;198; 1.4; -0.9;0;0;1024;1024;1024;1024;0;0;0;0;0;0;0;35;;;;;;;0;32;51.613.946.533.536;-0.86690619572;0;;
1436120;21/03/2025 08:30;-1.302.593;1.194.049.345;3.831.693.036;;;56.312.545.765.256;0;0.1342164;131.409.453.024;208.362.211.392;26;0;143.366;62.285.544.644.056;98.046.919.148;14.092.722;133.951.119.772;0;0;0;198.7; 2.1; -0.9;0;0;1024;1024;1024;1024;0;0;0;0;0;0;0;35;;;;;;;0;32;56.312.545.765.256;3.831.693.036;0;;
