time(millisecond);datetime(utc);latitude;longitude;height_above_takeoff(feet);height_above_ground_at_drone_location(feet);ground_elevation_at_drone_location(feet);altitude_above_seaLevel(feet);height_sonar(feet);speed(mph);distance(feet);mileage(feet);satellites;gpslevel;voltage(v);max_altitude(feet);max_ascent(feet);max_speed(mph);max_distance(feet); xSpeed(mph); ySpeed(mph); zSpeed(mph); compass_heading(degrees); pitch(degrees); roll(degrees);isPhoto;isVideo;rc_elevator;rc_aileron;rc_throttle;rc_rudder;rc_elevator(percent);rc_aileron(percent);rc_throttle(percent);rc_rudder(percent);gimbal_heading(degrees);gimbal_pitch(degrees);gimbal_roll(degrees);battery_percent;voltageCell1;voltageCell2;voltageCell3;voltageCell4;voltageCell5;voltageCell6;current(A);battery_temperature(f);altitude(feet);ascent(feet);flycStateRaw;flycState;message
399940;31/12/1969 16:00;0;0;0;Available with any HD 360 subscription;Available with any HD 360 subscription;52.699.443.615.516;0;0;0;0;0;0;0;52.699.443.615.516;0;0;0;0;0;0;0;0;0;0;0;1024;1024;1024;1024;0;0;0;0;0;0;0;97;;;;;;;0;32;52.699.443.615.516;0;0;;"[commander] Armed by RC (switch)	"
400570;31/12/1969 16:00;0;0;0;;;52.699.443.615.516;0;0;0;0;0;0;0;52.699.443.615.516;0;0;0;0;0;0;0;0;0;0;0;1024;1024;1024;1024;0;0;0;0;0;0;0;97;;;;;;;0;32;52.699.443.615.516;0;0;;[logger] Opened full log file: /fs/microsd/log/2025-03-21/07_50_19.ulg
400940;31/12/1969 16:00;0;0;0;;;52.699.443.615.516;0;0;0;0;0;0;0;52.699.443.615.516;0;0;0;0;0;0;0;0;0;0;0;1024;1024;1024;1024;0;0;0;0;0;0;0;97;;;;;;;0;32;52.699.443.615.516;0;0;;
401130;21/03/2025 07:57;-13.025.673;1.194.049.474;0;;;52.699.443.615.516;0;0.0894776;0;0;27;0;0;52.699.443.615.516;0;0.0894776;0;0;0;0;181.1; 3.5; -1.7;0;0;1024;1024;1024;1024;0;0;0;0;0;0;0;97;;;;;;;0;32;52.699.443.615.516;0;0;;
401330;21/03/2025 07:57;-13.025.674;1.194.049.474;-0.81488191584;;;51.884.561.699.676;0;0.1565858;0.036484909304;0.036484909304;27;0;0;52.699.443.615.516;0;0.1565858;0.036484909304;0;0;0;181; 3.5; -1.7;0;0;1024;1024;1024;1024;0;0;0;0;0;0;0;97;;;;;;;0;32;51.884.561.699.676;-0.81488191584;0;;
401520;21/03/2025 07:57;-13.025.673;1.194.049.475;110.096.460.216;;;53.800.408.217.676;0;0.1565858;0.036475394868;0.08807579022;27;0;0;53.800.408.217.676;110.096.460.216;0.1565858;0.036484909304;0;0;0;181; 3.5; -1.8;0;0;1024;1024;1024;1024;0;0;0;0;0;0;0;97;;;;;;;0;32;53.800.408.217.676;110.096.460.216;0;;
401720;21/03/2025 07:57;-13.025.674;1.194.049.478;-0.26873688524;;;52.430.706.730.276;0;0.2684328;0.150394689852;0.203424547192;27;0;0;53.800.408.217.676;110.096.460.216;0.2684328;0.150394689852;0;0;0;180.8; 3.5; -1.8;0;0;1024;1024;1024;1024;0;0;0;0;0;0;0;97;;;;;;;0;32;52.430.706.730.276;-0.26873688524;0;;
401920;21/03/2025 07:57;-13.025.675;119.404.948;0.27740486452;;;52.976.848.480.036;0;0.3579104;0.230697513944;0.284990494684;27;0;165.789;53.800.408.217.676;110.096.460.216;0.3579104;0.230697513944;0;0;0;180.8; 3.5; -1.9;0;0;1024;1024;1024;1024;0;0;0;0;0;0;0;97;;;;;;;0;32;52.976.848.480.036;0.27740486452;0;;
402130;21/03/2025 07:57;-13.025.676;1.194.049.482;0.96226709116;;;53.661.710.706.676;0;0.3131716;0.31165683412;0.36655512984;27;0;165.789;53.800.408.217.676;110.096.460.216;0.3579104;0.31165683412;0;0;0;180.6; 3.5; -1.9;0;0;1024;1024;1024;1024;0;0;0;0;0;0;0;97;;;;;;;0;32;53.661.710.706.676;0.96226709116;0;;
402330;21/03/2025 07:57;-13.025.676;1.194.049.482;0.82355973764;;;53.523.003.353.156;0;0.1565858;0.31165683412;0.36655512984;27;0;165.789;53.800.408.217.676;110.096.460.216;0.3579104;0.31165683412;0;0;0;180.5; 3.5; -1.9;0;0;1024;1024;1024;1024;0;0;0;0;0;0;0;97;;;;;;;0;32;53.523.003.353.156;0.82355973764;0;;
402520;21/03/2025 07:57;-13.025.676;1.194.049.483;0.82355973764;;;53.523.003.353.156;0;0.0894776;0.346046599;0.40303150896;27;0;165.789;53.800.408.217.676;110.096.460.216;0.3579104;0.346046599;0;0;0;180.5; 3.5;-2;0;0;1024;1024;1024;1024;0;0;0;0;0;0;0;97;;;;;;;0;32;53.523.003.353.156;0.82355973764;0;;
402720;21/03/2025 07:57;-13.025.675;1.194.049.484;0;;;52.699.443.615.516;0;0.0671082;0.3719816392;0.45462271796;27;0;165.789;53.800.408.217.676;110.096.460.216;0.3579104;0.3719816392;0;0;0;180.4; 3.5;-2;0;0;1024;1024;1024;1024;0;0;0;0;0;0;0;97;;;;;;;0;32;52.699.443.615.516;0;0;;
402920;21/03/2025 07:57;-13.025.674;1.194.049.485;0;;;52.699.443.615.516;0;0.1789552;0.402887152;0.50621392696;27;0;167.324;53.800.408.217.676;110.096.460.216;0.3579104;0.402887152;0;0;0;180.3; 3.5;-2;0;0;1024;1024;1024;1024;0;0;0;0;0;0;0;97;;;;;;;0;32;52.699.443.615.516;0;0;;
403120;21/03/2025 07:57;-13.025.674;1.194.049.485;0.55481957156;;;53.254.263.187.076;0;0.1565858;0.402887152;0.50621392696;27;0;167.324;53.800.408.217.676;110.096.460.216;0.3579104;0.402887152;0;0;0;180.2; 3.5; -2.1;0;0;1024;1024;1024;1024;0;0;0;0;0;0;0;97;;;;;;;0;32;53.254.263.187.076;0.55481957156;0;;
403330;21/03/2025 07:57;-13.025.673;1.194.049.486;0.55481957156;;;53.254.263.187.076;0;0.1342164;0.43770670692;0.55780513596;27;0;167.324;53.800.408.217.676;110.096.460.216;0.3579104;0.43770670692;0;0;0;180.1; 3.5; -2.1;0;0;1024;1024;1024;1024;0;0;0;0;0;0;0;97;;;;;;;0;32;53.254.263.187.076;0.55481957156;0;;
403530;21/03/2025 07:57;-13.025.673;1.194.049.486;0.90158795536;;;53.601.031.570.876;0;0.1789552;0.43770670692;0.55780513596;27;0;167.324;53.800.408.217.676;110.096.460.216;0.3579104;0.43770670692;0;0;0;180; 3.5; -2.1;0;0;1024;1024;1024;1024;0;0;0;0;0;0;0;97;;;;;;;0;32;53.601.031.570.876;0.90158795536;0;;
403720;21/03/2025 07:57;-13.025.673;1.194.049.487;136.970.804.908;;;54.069.151.664.596;0;0.1789552;0.47418308604;0.59428151508;27;0;167.324;54.069.151.664.596;136.970.804.908;0.3579104;0.47418308604;0;0;0;179.9; 3.4; -2.1;0;0;1024;1024;1024;1024;0;0;0;0;0;0;0;97;;;;;;;0;32;54.069.151.664.596;136.970.804.908;0;;
403920;21/03/2025 07:57;-13.025.672;1.194.049.487;-0.26873688524;;;52.430.706.730.276;0;0.111847;0.47558400472;0.63076445588;27;0;166.142;54.069.151.664.596;136.970.804.908;0.3579104;0.47558400472;0;0;0;179.8; 3.4; -2.1;0;0;1024;1024;1024;1024;0;0;0;0;0;0;0;97;;;;;;;0;32;52.430.706.730.276;-0.26873688524;0;;
404120;21/03/2025 07:57;-13.025.672;1.194.049.489;110.096.460.216;;;53.800.408.217.676;0;0.111847;0.54834647424;0.70371721412;27;0;166.142;54.069.151.664.596;136.970.804.908;0.3579104;0.54834647424;0;0;0;179.7; 3.5; -2.1;0;0;1024;1024;1024;1024;0;0;0;0;0;0;0;97;;;;;;;0;32;53.800.408.217.676;110.096.460.216;0;;
404330;21/03/2025 07:57;-13.025.671;1.194.049.489;-0.26873688524;;;52.430.706.730.276;0;0.1789552;0.55197836412;0.74020015492;27;0;166.142;54.069.151.664.596;136.970.804.908;0.3579104;0.55197836412;0;0;0;179.6; 3.5; -2.2;0;0;1024;1024;1024;1024;0;0;0;0;0;0;0;97;;;;;;;0;32;52.430.706.730.276;-0.26873688524;0;;"[commander] Takeoff detected	"
404530;21/03/2025 07:57;-1.302.567;119.404.949;136.970.804.908;;;54.069.151.664.596;0;0.111847;0.5937828274;0.79179136392;27;0;166.142;54.069.151.664.596;136.970.804.908;0.3579104;0.5937828274;0;0;0;179.5; 3.4; -2.1;0;0;1024;1024;1024;1024;0;0;0;0;0;0;0;97;;;;;;;0;32;54.069.151.664.596;136.970.804.908;0;;
404720;21/03/2025 07:57;-1.302.567;119.404.949;32.855.644.096;;;55.985.008.025.116;0;0.2013246;0.5937828274;0.79179136392;27;0;166.142;55.985.008.025.116;32.855.644.096;0.3579104;0.5937828274;0;0;0;179.4; 3.4; -2.1;0;0;1024;1024;1024;1024;0;0;0;0;0;0;0;97;;;;;;;0;32;55.985.008.025.116;32.855.644.096;0;;
404930;21/03/2025 07:57;-13.025.669;119.404.949;324.222.123.236;;;55.941.664.847.876;0;0.2013246;0.60157810324;0.82827758556;27;0;161.613;55.985.008.025.116;32.855.644.096;0.3579104;0.60157810324;0;0;0;179.3; 3.3; -1.8;0;0;1024;1024;1024;1024;0;0;0;0;0;0;0;92;;;;;;;0;32;55.941.664.847.876;324.222.123.236;0;;
405120;21/03/2025 07:57;-13.025.669;1.194.049.492;110.096.460.216;;;53.800.408.217.676;0;0.0447388;0.67258204252;0.90122706296;27;0;161.613;55.985.008.025.116;32.855.644.096;0.3579104;0.67258204252;0;0;0;179.2; 3.3; -1.7;0;0;1024;1024;1024;1024;0;0;0;0;0;0;0;92;;;;;;;0;32;53.800.408.217.676;110.096.460.216;0;;
405330;21/03/2025 07:57;-13.025.669;1.194.049.492;-273.074.483.804;;;49.968.698.777.476;0;0.0671082;0.67258204252;0.90122706296;27;0;161.613;55.985.008.025.116;32.855.644.096;0.3579104;0.67258204252;0;0;0;178.9; 3.1; -1.2;0;0;1024;1024;1024;1024;0;0;0;0;0;0;0;92;;;;;;;0;32;49.968.698.777.476;-273.074.483.804;0;;
405530;21/03/2025 07:57;-13.025.668;1.194.049.491;49.326.773.232;;;57.632.120.938.716;0;0.223694;0.64636156924;0.95281827196;27;0;161.613;57.632.120.938.716;49.326.773.232;0.3579104;0.67258204252;0;0;0;178.9; 2.6; -0.4;0;0;1024;1024;1024;1024;0;0;0;0;0;0;0;92;;;;;;;0;32;57.632.120.938.716;49.326.773.232;0;;
405720;21/03/2025 07:57;-13.025.668;1.194.049.492;0.27740486452;;;52.976.848.480.036;0;0.1342164;0.681430468;0.98929465108;27;0;161.613;57.632.120.938.716;49.326.773.232;0.3579104;0.681430468;0;0;0;178.7; 2.1; 0.9;0;0;1024;1024;1024;1024;0;0;0;0;0;0;0;92;;;;;;;0;32;52.976.848.480.036;0.27740486452;0;;
405930;21/03/2025 07:57;-13.025.668;119.404.949;192.452.105.896;;;54.623.964.674.476;0;0.4026492;0.61145671248;106.224.412.848;27;0;158.563;57.632.120.938.716;49.326.773.232;0.4026492;0.681430468;0;0;0;178.1; 0.2; 2.9;0;0;1024;1024;1024;1024;0;0;0;0;0;0;0;85;;;;;;;0;32;54.623.964.674.476;192.452.105.896;0;;
406130;21/03/2025 07:57;-1.302.567;119.404.949;164.711.619.444;;;54.346.559.809.956;0;0.111847;0.5937828274;113.521.329.092;27;0;158.563;57.632.120.938.716;49.326.773.232;0.4026492;0.681430468;0;0;0;177.4; -1.8; 4.3;0;0;1024;1024;1024;1024;0;0;0;0;0;0;0;85;;;;;;;0;32;54.346.559.809.956;164.711.619.444;0;;
406330;21/03/2025 07:57;-13.025.671;1.194.049.489;90.417.981.896;;;61.741.241.805.116;0;0.2460634;0.55197836412;118.680.449.992;27;0;158.563;61.741.241.805.116;90.417.981.896;0.4026492;0.681430468;0;0;0;178.1; -2.6; 2.8;0;0;1024;1024;1024;1024;0;0;0;0;0;0;0;85;;;;;;;0;32;61.741.241.805.116;90.417.981.896;0;;
406530;21/03/2025 07:57;-13.025.672;1.194.049.488;192.452.105.896;;;54.623.964.674.476;0;0.4026492;0.5119586778;123.839.570.892;27;0;158.563;61.741.241.805.116;90.417.981.896;0.4026492;0.681430468;0;0;0;179.3; -2.7; 1.1;0;0;1024;1024;1024;1024;0;0;0;0;0;0;0;85;;;;;;;0;32;54.623.964.674.476;192.452.105.896;0;;
406730;21/03/2025 07:57;-13.025.674;1.194.049.488;0.82355973764;;;53.523.003.353.156;0;0.1342164;0.5119586778;131.136.487.136;27;0;158.563;61.741.241.805.116;90.417.981.896;0.4026492;0.681430468;0;0;0;180.1; -1.3; -2.8;0;0;1024;1024;1024;1024;0;0;0;0;0;0;0;85;;;;;;;0;32;53.523.003.353.156;0.82355973764;0;;
406930;21/03/2025 07:57;-13.025.675;1.194.049.487;7.672.080.298;;;60.371.523.913.516;0;0.2684328;0.47976379488;136.295.608.036;27;0;159.465;61.741.241.805.116;90.417.981.896;0.4026492;0.681430468;0;0;0;180.5; 1.4; -2.6;0;0;1024;1024;1024;1024;0;0;0;0;0;0;0;78;;;;;;;0;32;60.371.523.913.516;7.672.080.298;0;;
407130;21/03/2025 07:57;-13.025.677;1.194.049.488;63.023.952.148;;;59.001.838.830.316;0;0.2684328;0.5311023792;14.445.374.478;27;0;159.465;61.741.241.805.116;90.417.981.896;0.4026492;0.681430468;0;0;0;181.9; 1.8; -2.5;0;0;1024;1024;1024;1024;0;0;0;0;0;0;0;78;;;;;;;0;32;59.001.838.830.316;63.023.952.148;0;;
407330;21/03/2025 07:57;-13.025.679;1.194.049.489;164.711.619.444;;;54.346.559.809.956;0;0.2908022;0.58930119996;15.261.155.344;27;0;159.465;61.741.241.805.116;90.417.981.896;0.4026492;0.681430468;0;0;0;183; 1.6; -1.9;0;0;1024;1024;1024;1024;0;0;0;0;0;0;0;78;;;;;;;0;32;54.346.559.809.956;164.711.619.444;0;;
407520;21/03/2025 07:57;-1.302.568;1.194.049.492;2.739.419.379;;;55.438.862.994.516;0;0.4697574;0.70448164984;164.146.330.712;27;0;159.465;61.741.241.805.116;90.417.981.896;0.4697574;0.70448164984;0;0;0;183.9; 1.1; -0.9;0;0;1024;1024;1024;1024;0;0;0;0;0;0;0;78;;;;;;;0;32;55.438.862.994.516;2.739.419.379;0;;
407720;21/03/2025 07:57;-13.025.679;1.194.049.494;164.711.619.444;;;54.346.559.809.956;0;0.0894776;0.761647006;172.302.827.036;27;0;159.465;61.741.241.805.116;90.417.981.896;0.4697574;0.761647006;0;0;0;183.8; 0.5; -0.6;0;0;1024;1024;1024;1024;0;0;0;0;0;0;0;78;;;;;;;0;32;54.346.559.809.956;164.711.619.444;0;;
407930;21/03/2025 07:57;-13.025.679;1.194.049.495;0.82355973764;;;53.523.003.353.156;0;0.2908022;0.7966535688;175.950.464.948;27;0;158.302;61.741.241.805.116;90.417.981.896;0.4697574;0.7966535688;0;0;0;182.7; -0.1; -1.6;0;0;1024;1024;1024;1024;0;0;0;0;0;0;0;75;;;;;;;0;32;53.523.003.353.156;0.82355973764;0;;
408130;21/03/2025 07:57;-13.025.679;1.194.049.497;46.552.823.012;;;57.354.725.916.716;0;0.3131716;0.8670275868;183.245.412.688;27;0;158.302;61.741.241.805.116;90.417.981.896;0.4697574;0.8670275868;0;0;0;181.9; 0.2;-1;0;0;1024;1024;1024;1024;0;0;0;0;0;0;0;75;;;;;;;0;32;57.354.725.916.716;46.552.823.012;0;;
408330;21/03/2025 07:57;-13.025.679;1.194.049.495;-0.81488191584;;;51.884.561.699.676;0;0.2908022;0.7966535688;190.540.688.512;27;0;158.302;61.741.241.805.116;90.417.981.896;0.4697574;0.8670275868;0;0;0;181.6; 0.5; -0.6;0;0;1024;1024;1024;1024;0;0;0;0;0;0;0;75;;;;;;;0;32;51.884.561.699.676;-0.81488191584;0;;
408520;21/03/2025 07:57;-1.302.568;1.194.049.495;82.182.417.328;;;60.917.685.348.316;0;0.3802798;0.80744097072;194.189.310.676;27;0;158.302;61.741.241.805.116;90.417.981.896;0.4697574;0.8670275868;0;0;0;181.3; 0.7; 0.9;0;0;1024;1024;1024;1024;0;0;0;0;0;0;0;75;;;;;;;0;32;60.917.685.348.316;82.182.417.328;0;;
408720;21/03/2025 07:57;-13.025.681;1.194.049.495;0.27740486452;;;52.976.848.480.036;0;0.223694;0.81971131232;197.837.604.756;27;0;158.302;61.741.241.805.116;90.417.981.896;0.4697574;0.8670275868;0;0;0;180.8; 0.9; 1.7;0;0;1024;1024;1024;1024;0;0;0;0;0;0;0;75;;;;;;;0;32;52.976.848.480.036;0.27740486452;0;;
408920;21/03/2025 07:57;-13.025.682;119.404.949;41.091.208.664;;;56.808.564.481.916;0;0.4697574;0.66964240988;216.436.686.716;27;0;161.223;61.741.241.805.116;90.417.981.896;0.4697574;0.8670275868;0;0;0;180.5; 1.2; 1.3;0;0;1024;1024;1024;1024;0;0;0;0;0;0;0;74;;;;;;;0;32;56.808.564.481.916;41.091.208.664;0;;
409130;21/03/2025 07:57;-13.025.682;1.194.049.485;-21.845.965.266;;;50.514.847.088.916;0;0.6934514;0.51846786436;234.674.548.192;27;0;161.223;61.741.241.805.116;90.417.981.896;0.6934514;0.8670275868;0;0;0;180.3; 1.5; 0.8;0;0;1024;1024;1024;1024;0;0;0;0;0;0;0;74;;;;;;;0;32;50.514.847.088.916;-21.845.965.266;0;;
409330;21/03/2025 07:57;-13.025.681;1.194.049.483;301.682.096.268;;;55.716.264.578.196;0;0.559235;0.43927494844;242.831.044.516;27;0;161.223;61.741.241.805.116;90.417.981.896;0.6934514;0.8670275868;0;0;0;180.3; 1.8; 0.8;0;0;1024;1024;1024;1024;0;0;0;0;0;0;0;74;;;;;;;0;32;55.716.264.578.196;301.682.096.268;0;;
409530;21/03/2025 07:57;-13.025.682;1.194.049.476;60.249.673.844;;;58.724.410.999.916;0;1.006.623;0.33637140184;268.623.368.176;27;0;161.223;61.741.241.805.116;90.417.981.896;1.006.623;0.8670275868;0;0;0;180.4; 1.5; 0.5;0;0;1024;1024;1024;1024;0;0;0;0;0;0;0;74;;;;;;;0;32;58.724.410.999.916;60.249.673.844;0;;
409720;21/03/2025 07:57;-13.025.681;1.194.049.468;-0.81488191584;;;51.884.561.699.676;0;0.894776;0.36481628464;298.030.849.432;27;0;161.223;61.741.241.805.116;90.417.981.896;1.006.623;0.8670275868;0;0;0;179.8; 1.6; -1.1;0;0;1024;1024;1024;1024;0;0;0;0;0;0;0;74;;;;;;;0;32;51.884.561.699.676;-0.81488191584;0;;
409920;21/03/2025 07:57;-13.025.681;1.194.049.464;136.970.804.908;;;54.069.151.664.596;0;0.8724066;0.46716208844;312.621.072.996;27;0;156.247;61.741.241.805.116;90.417.981.896;1.006.623;0.8670275868;0;0;0;178.9; 1.3; -1.7;0;0;1024;1024;1024;1024;0;0;0;0;0;0;0;73;;;;;;;0;32;54.069.151.664.596;136.970.804.908;0;;
410120;21/03/2025 07:57;-13.025.681;1.194.049.456;37.883.531.396;;;56.487.796.755.116;0;0.8724066;0.71851380252;34.180.119.204;27;0;156.247;61.741.241.805.116;90.417.981.896;1.006.623;0.8670275868;0;0;0;178.4; 1.2; -1.1;0;0;1024;1024;1024;1024;0;0;0;0;0;0;0;73;;;;;;;0;32;56.487.796.755.116;37.883.531.396;0;;
410330;21/03/2025 07:57;-1.302.568;119.404.945;44.298.885.932;;;57.129.332.208.716;0;11.408.394;0.91190619716;36.398.951.296;27;0;156.247;61.741.241.805.116;90.417.981.896;11.408.394;0.91190619716;-0.223694;0;0;178.4; 1.4; -1.7;0;0;1024;1024;1024;1024;0;0;0;0;0;0;0;73;;;;;;;0;32;57.129.332.208.716;44.298.885.932;0;;
410530;21/03/2025 07:57;-1.302.568;1.194.049.441;3.840.387.262;;;56.539.830.877.516;0;0.894776;123.048.888.452;396.817.598;27;0;156.247;61.741.241.805.116;90.417.981.896;11.408.394;123.048.888.452;0;0;0;178.3; 1.3; -1.4;0;0;1024;1024;1024;1024;0;0;0;0;0;0;0;73;;;;;;;0;32;56.539.830.877.516;3.840.387.262;0;;
410720;21/03/2025 07:57;-13.025.679;1.194.049.432;247.067.593.208;;;55.170.119.547.596;0;0.9395148;154.753.285.792;42.984.581.428;27;0;156.247;61.741.241.805.116;90.417.981.896;11.408.394;154.753.285.792;0;0;0;177.8; 1.2; -0.7;0;0;1024;1024;1024;1024;0;0;0;0;0;0;0;73;;;;;;;0;32;55.170.119.547.596;247.067.593.208;0;;
410920;21/03/2025 07:57;-13.025.677;1.194.049.429;46.552.823.012;;;57.354.725.916.716;0;0.7381902;164.787.406.848;44.299.870.184;27;0;156.107;61.741.241.805.116;90.417.981.896;11.408.394;164.787.406.848;0;0;0;177.4; 0.8; -0.8;0;0;1024;1024;1024;1024;0;0;0;0;0;0;0;72;;;;;;;0;32;57.354.725.916.716;46.552.823.012;0;;
411120;21/03/2025 07:57;-13.025.674;1.194.049.419;575.623.378;;;58.455.677.395.516;0;0.9842536;200.648.628.468;48.108.269.256;27;0;156.107;61.741.241.805.116;90.417.981.896;11.408.394;200.648.628.468;0;0;0;177.3; 0.3; -2.3;0;0;1024;1024;1024;1024;0;0;0;0;0;0;0;72;;;;;;;0;32;58.455.677.395.516;575.623.378;0;;
411330;21/03/2025 07:57;-13.025.672;1.194.049.416;68.485.238.412;;;59.547.967.456.716;0;0.7158208;2.115.895.737;49.423.558.012;27;0;156.107;61.741.241.805.116;90.417.981.896;11.408.394;2.115.895.737;0;0;0;177.2; -0.1; -4.6;0;0;1024;1024;1024;1024;0;0;0;0;0;0;0;72;;;;;;;0;32;59.547.967.456.716;68.485.238.412;0;;
411530;21/03/2025 07:57;-13.025.669;1.194.049.408;52.101.051.536;;;57.909.548.769.116;0;0.6039738;241.180.453.912;52.540.027.928;27;0;156.107;61.741.241.805.116;90.417.981.896;11.408.394;241.180.453.912;0;0;0;177.1; -0.8;-4;0;0;1024;1024;1024;1024;0;0;0;0;0;0;0;72;;;;;;;0;32;57.909.548.769.116;52.101.051.536;0;;
411720;21/03/2025 07:57;-13.025.669;1.194.049.405;575.623.378;;;58.455.677.395.516;0;0.6039738;252.103.682.608;53.634.188.068;27;0;156.107;61.741.241.805.116;90.417.981.896;11.408.394;252.103.682.608;0;0;0;177.2; -1.1; -2.7;0;0;1024;1024;1024;1024;0;0;0;0;0;0;0;72;;;;;;;0;32;58.455.677.395.516;575.623.378;0;;
411930;21/03/2025 07:57;-13.025.669;1.194.049.403;219.326.450.588;;;54.892.708.121.396;0;0.4250186;259.387.147.408;54.363.846.884;27;0;158.637;61.741.241.805.116;90.417.981.896;11.408.394;259.387.147.408;0;0;0;177.6; -0.8;-2;0;0;1024;1024;1024;1024;0;0;0;0;0;0;0;72;;;;;;;0;32;54.892.708.121.396;219.326.450.588;0;;
412120;21/03/2025 07:57;-13.025.671;11.940.494;575.623.378;;;58.455.677.395.516;0;0.4026492;270.017.397.092;5.567.913.564;27;0;158.637;61.741.241.805.116;90.417.981.896;11.408.394;270.017.397.092;0;0;0;178.3; -0.5; -1.7;0;0;1024;1024;1024;1024;0;0;0;0;0;0;0;72;;;;;;;0;32;58.455.677.395.516;575.623.378;0;;
412330;21/03/2025 07:57;-13.025.672;11.940.494;68.485.238.412;;;59.547.967.456.716;0;0.2684328;269.943.578.192;56.043.965.048;27;0;158.637;61.741.241.805.116;90.417.981.896;11.408.394;270.017.397.092;0;0;0;178.4;-1; -1.1;0;0;1024;1024;1024;1024;0;0;0;0;0;0;0;72;;;;;;;0;32;59.547.967.456.716;68.485.238.412;0;;
412530;21/03/2025 07:57;-13.025.676;1.194.049.399;3.840.387.262;;;56.539.830.877.516;0;0.6263432;273.785.113.748;57.548.230.188;27;0;158.637;61.741.241.805.116;90.417.981.896;11.408.394;273.785.113.748;0;0;0;178.9; -1.4; -0.6;0;0;1024;1024;1024;1024;0;0;0;0;0;0;0;72;;;;;;;0;32;56.539.830.877.516;3.840.387.262;0;;
412720;21/03/2025 07:57;-13.025.682;1.194.049.398;65.797.902.368;;;59.279.233.852.316;0;0.5144962;27.915.191.182;59.767.390.364;27;0;158.637;61.741.241.805.116;90.417.981.896;11.408.394;27.915.191.182;0;0;0;179.5; -0.7; -0.7;0;0;1024;1024;1024;1024;0;0;0;0;0;0;0;72;;;;;;;0;32;59.279.233.852.316;65.797.902.368;0;;
412930;21/03/2025 07:57;-13.025.685;1.194.049.397;53.401.248.428;;;58.039.568.458.316;0;0.7605596;284.253.289.936;60.921.261.792;27;0;158.851;61.741.241.805.116;90.417.981.896;11.408.394;284.253.289.936;0;0;0;180.7; 1.5; -1.9;0;0;1024;1024;1024;1024;0;0;0;0;0;0;0;71;;;;;;;0;32;58.039.568.458.316;53.401.248.428;0;;
413130;21/03/2025 07:57;-1.302.569;1.194.049.395;49.326.773.232;;;57.632.120.938.716;0;0.671082;294.756.243.028;62.885.828.784;26;0;158.851;61.741.241.805.116;90.417.981.896;11.408.394;294.756.243.028;0;0;0;181.2; 2.4; -1.9;0;0;1024;1024;1024;1024;0;0;0;0;0;0;0;71;;;;;;;0;32;57.632.120.938.716;49.326.773.232;0;;
413330;21/03/2025 07:57;-13.025.692;1.194.049.395;52.101.051.536;;;57.909.548.769.116;0;0.5368656;296.377.634.156;636.154.876;26;0;158.851;61.741.241.805.116;90.417.981.896;11.408.394;296.377.634.156;0;0;0;182.3; 1.8; -1.4;0;0;1024;1024;1024;1024;0;0;0;0;0;0;0;71;;;;;;;0;32;57.909.548.769.116;52.101.051.536;0;;
413530;21/03/2025 07:57;-13.025.695;1.194.049.395;52.101.051.536;;;57.909.548.769.116;0;0.4250186;299.126.978.076;64.709.975.824;27;0;158.851;61.741.241.805.116;90.417.981.896;11.408.394;299.126.978.076;0;0;0;184.7; 0.7; -1.4;0;0;1024;1024;1024;1024;0;0;0;0;0;0;0;71;;;;;;;0;32;57.909.548.769.116;52.101.051.536;0;;
413720;21/03/2025 07:57;-13.025.698;1.194.049.397;-136.971.132.992;;;51.329.732.285.596;0;0.3579104;295.301.190.552;66.025.592.664;27;0;158.851;61.741.241.805.116;90.417.981.896;11.408.394;299.126.978.076;0;0;0;186.8; 0.3; -1.3;0;0;1024;1024;1024;1024;0;0;0;0;0;0;0;71;;;;;;;0;32;51.329.732.285.596;-136.971.132.992;0;;
413930;21/03/2025 07:57;-13.025.699;1.194.049.396;101.340.882.508;;;62.833.531.866.316;0;0.2908022;29.990.650.566;66.541.340.712;27;0;15.833;62.833.531.866.316;101.340.882.508;11.408.394;29.990.650.566;0;0;0;189.8; -0.5; -0.9;0;0;1024;1024;1024;1024;0;0;0;0;0;0;0;71;;;;;;;0;32;62.833.531.866.316;101.340.882.508;0;;
414120;21/03/2025 07:57;-13.025.702;1.194.049.397;54.008.203.828;;;58.100.263.998.316;0;0.4026492;300.130.258.948;6.769.521.214;27;0;15.833;62.833.531.866.316;101.340.882.508;11.408.394;300.130.258.948;0;0;0;190.9; -0.9;-1;0;0;1024;1024;1024;1024;0;0;0;0;0;0;0;71;;;;;;;0;32;58.100.263.998.316;54.008.203.828;0;;
414330;21/03/2025 07:57;-13.025.704;1.194.049.396;3.840.387.262;;;56.539.830.877.516;0;0.4250186;30.616.634.838;68.510.828.964;27;0;15.833;62.833.531.866.316;101.340.882.508;11.408.394;30.616.634.838;0;0;0;191.8; -1.3; -0.9;0;0;1024;1024;1024;1024;0;0;0;0;0;0;0;71;;;;;;;0;32;56.539.830.877.516;3.840.387.262;0;;
414520;21/03/2025 07:57;-13.025.707;1.194.049.396;136.970.804.908;;;54.069.151.664.596;0;0.2460634;310.376.322.268;69.605.317.188;27;0;15.833;62.833.531.866.316;101.340.882.508;11.408.394;310.376.322.268;0;0;0;193; -1.7; 0.1;0;0;1024;1024;1024;1024;0;0;0;0;0;0;0;71;;;;;;;0;32;54.069.151.664.596;136.970.804.908;0;;
414720;21/03/2025 07:57;-13.025.712;1.194.049.395;49.326.773.232;;;57.632.120.938.716;0;0.3579104;321.373.697.948;71.465.881.552;27;0;15.833;62.833.531.866.316;101.340.882.508;11.408.394;321.373.697.948;0;0;0;194.7; -1.6; 0.1;0;0;1024;1024;1024;1024;0;0;0;0;0;0;0;71;;;;;;;0;32;57.632.120.938.716;49.326.773.232;0;;
414930;21/03/2025 07:57;-13.025.715;1.194.049.393;60.249.673.844;;;58.724.410.999.916;0;0.8276678;3.328.248.138;72.781.170.308;27;0;159.121;62.833.531.866.316;101.340.882.508;11.408.394;3.328.248.138;0;0;0;196.8; -0.7; -1.1;0;0;1024;1024;1024;1024;0;0;0;0;0;0;0;70;;;;;;;0;32;58.724.410.999.916;60.249.673.844;0;;
415130;21/03/2025 07:57;-13.025.721;1.194.049.389;7.672.080.298;;;60.371.523.913.516;0;0.6039738;35.608.268.856;75.412.075.904;27;0;159.121;62.833.531.866.316;101.340.882.508;11.408.394;35.608.268.856;0;0;0;197.9; -0.2; -1.6;0;0;1024;1024;1024;1024;0;0;0;0;0;0;0;70;;;;;;;0;32;60.371.523.913.516;7.672.080.298;0;;
415330;21/03/2025 07:57;-13.025.723;1.194.049.388;301.682.096.268;;;55.716.264.578.196;0;0.5816044;3.628.773.082;76.227.692.728;27;0;159.121;62.833.531.866.316;101.340.882.508;11.408.394;3.628.773.082;0;0;0;198.5; 0.1; -1.4;0;0;1024;1024;1024;1024;0;0;0;0;0;0;0;70;;;;;;;0;32;55.716.264.578.196;301.682.096.268;0;;
415520;21/03/2025 07:57;-13.025.728;1.194.049.383;55.741.799.684;;;58.273.623.583.916;0;0.4697574;38.787.074.732;7.880.741.722;27;0;159.121;62.833.531.866.316;101.340.882.508;11.408.394;38.787.074.732;0;0;0;199; 0.4; -1.3;0;0;1024;1024;1024;1024;0;0;0;0;0;0;0;70;;;;;;;0;32;58.273.623.583.916;55.741.799.684;0;;
415720;21/03/2025 07:57;-13.025.732;1.194.049.382;46.552.823.012;;;57.354.725.916.716;0;0.6934514;39.868.111.512;8.031.168.236;27;0;159.121;62.833.531.866.316;101.340.882.508;11.408.394;39.868.111.512;0;0;0;199.1; 0.3; -1.5;0;0;1024;1024;1024;1024;0;0;0;0;0;0;0;70;;;;;;;0;32;57.354.725.916.716;46.552.823.012;0;;
415920;21/03/2025 07:57;-13.025.737;1.194.049.379;49.326.773.232;;;57.632.120.938.716;0;0.5144962;41.785.106.324;82.438.979.016;27;0;156.563;62.833.531.866.316;101.340.882.508;11.408.394;41.785.106.324;0;0;0;199; 0.2; -1.6;0;0;1024;1024;1024;1024;0;0;0;0;0;0;0;70;;;;;;;0;32;57.632.120.938.716;49.326.773.232;0;;
416130;21/03/2025 07:57;-13.025.742;1.194.049.377;301.682.096.268;;;55.716.264.578.196;0;0.7158208;4.342.355.782;84.403.546.008;27;0;156.563;62.833.531.866.316;101.340.882.508;11.408.394;4.342.355.782;0;0;0;199.1; -0.1; -1.6;0;0;1024;1024;1024;1024;0;0;0;0;0;0;0;70;;;;;;;0;32;55.716.264.578.196;301.682.096.268;0;;
416330;21/03/2025 07:57;-13.025.745;1.194.049.374;82.182.417.328;;;60.917.685.348.316;0;0.7605596;44.950.460.756;85.951.118.236;27;0;156.563;62.833.531.866.316;101.340.882.508;11.408.394;44.950.460.756;0;0;0;199.5; -0.5; -1.6;0;0;1024;1024;1024;1024;0;0;0;0;0;0;0;70;;;;;;;0;32;60.917.685.348.316;82.182.417.328;0;;
416530;21/03/2025 07:57;-1.302.575;1.194.049.371;136.970.804.908;;;54.069.151.664.596;0;0.7158208;46.912.074.992;88.078.414.892;27;0;156.563;62.833.531.866.316;101.340.882.508;11.408.394;46.912.074.992;0;0;0;199.8; -0.5; -2.5;0;0;1024;1024;1024;1024;0;0;0;0;0;0;0;70;;;;;;;0;32;54.069.151.664.596;136.970.804.908;0;;
416720;21/03/2025 07:57;-13.025.756;119.404.937;11.235.072.538;;;63.934.516.153.516;0;0.6039738;48.539.371.632;90.297.903.152;27;0;156.563;63.934.516.153.516;11.235.072.538;11.408.394;48.539.371.632;0;0;0;199.5; -0.5; -1.9;0;0;1024;1024;1024;1024;0;0;0;0;0;0;0;70;;;;;;;0;32;63.934.516.153.516;11.235.072.538;0;;
416920;21/03/2025 07:57;-1.302.576;1.194.049.369;575.623.378;;;58.455.677.395.516;0;0.8052984;49.743.111.828;91.802.168.292;27;0;157.902;63.934.516.153.516;11.235.072.538;11.408.394;49.743.111.828;0;0;0;198.9; -0.6; -1.4;0;0;1024;1024;1024;1024;0;0;0;0;0;0;0;70;;;;;;;0;32;58.455.677.395.516;575.623.378;0;;
417120;21/03/2025 07:57;-13.025.765;1.194.049.368;3.840.387.262;;;56.539.830.877.516;0;0.4697574;51.201.445.208;93.662.404.572;27;0;157.902;63.934.516.153.516;11.235.072.538;11.408.394;51.201.445.208;0;0;0;198.2;-1; -1.1;0;0;1024;1024;1024;1024;0;0;0;0;0;0;0;70;;;;;;;0;32;56.539.830.877.516;3.840.387.262;0;;
417330;21/03/2025 07:57;-13.025.768;1.194.049.367;575.623.378;;;58.455.677.395.516;0;0.6934514;52.197.836.316;94.816.276;27;0;157.902;63.934.516.153.516;11.235.072.538;11.408.394;52.197.836.316;0;0;0;197.5; -1.3; -1.1;0;0;1024;1024;1024;1024;0;0;0;0;0;0;0;70;;;;;;;0;32;58.455.677.395.516;575.623.378;0;;
417530;21/03/2025 07:57;-13.025.775;1.194.049.365;43.865.486.968;;;57.085.992.312.316;0;0.559235;54.457.678.908;97.472.444.064;27;0;157.902;63.934.516.153.516;11.235.072.538;11.408.394;54.457.678.908;0;0;0;197.4; -0.7; -1.6;0;0;1024;1024;1024;1024;0;0;0;0;0;0;0;70;;;;;;;0;32;57.085.992.312.316;43.865.486.968;0;;
417720;21/03/2025 07:57;-13.025.781;1.194.049.363;63.023.952.148;;;59.001.838.830.316;0;0.447388;56.497.049.052;99.779.858.836;27;0;157.902;63.934.516.153.516;11.235.072.538;11.408.394;56.497.049.052;0;0;0;197.8;1; -2.3;0;0;1024;1024;1024;1024;0;0;0;0;0;0;0;70;;;;;;;0;32;59.001.838.830.316;63.023.952.148;0;;
417920;21/03/2025 07:57;-13.025.785;1.194.049.363;79.408.467.108;;;60.640.290.326.316;0;0.7158208;57.524.280.056;101.239.176.468;27;0;156.461;63.934.516.153.516;11.235.072.538;11.408.394;57.524.280.056;0;0;0;197.6; 1.5; -2.1;0;0;1024;1024;1024;1024;0;0;0;0;0;0;0;70;;;;;;;0;32;60.640.290.326.316;79.408.467.108;0;;
418120;21/03/2025 07:57;-13.025.791;119.404.936;406.578.097;;;56.765.224.585.516;0;0.5816044;59.854.660.708;103.686.355.024;27;0;156.461;63.934.516.153.516;11.235.072.538;11.408.394;59.854.660.708;0;0;0;197.4; 0.8;-1;0;0;1024;1024;1024;1024;0;0;0;0;0;0;0;70;;;;;;;0;32;56.765.224.585.516;406.578.097;0;;
418330;21/03/2025 07:57;-13.025.792;1.194.049.361;49.760.172.196;;;57.675.460.835.116;0;0.4697574;59.865.815.564;104.202.431.156;27;0;156.461;63.934.516.153.516;11.235.072.538;11.408.394;59.865.815.564;0;0;0;198.1; 0.4; -1.3;0;0;1024;1024;1024;1024;0;0;0;0;0;0;0;70;;;;;;;0;32;57.675.460.835.116;49.760.172.196;0;;
418530;21/03/2025 07:57;-13.025.799;1.194.049.359;84.956.367.548;;;61.195.080.370.316;0;0.559235;62.232.285.456;10.685.859.922;27;0;156.461;63.934.516.153.516;11.235.072.538;11.408.394;62.232.285.456;0;0;0;198.9; 1.4; -1.8;0;0;1024;1024;1024;1024;0;0;0;0;0;0;0;70;;;;;;;0;32;61.195.080.370.316;84.956.367.548;0;;
418720;21/03/2025 07:57;-13.025.803;119.404.936;52.101.051.536;;;57.909.548.769.116;0;0.4921268;63.077.101.756;10.836.286.436;27;0;156.461;63.934.516.153.516;11.235.072.538;11.408.394;63.077.101.756;0;0;0;199.4; 1.9; -1.4;0;0;1024;1024;1024;1024;0;0;0;0;0;0;0;70;;;;;;;0;32;57.909.548.769.116;52.101.051.536;0;;
418930;21/03/2025 07:57;-13.025.804;119.404.936;192.452.105.896;;;54.623.964.674.476;0;0.1565858;63.351.708.064;108.727.693.768;27;0;156.349;63.934.516.153.516;11.235.072.538;11.408.394;63.351.708.064;0;0;0;199.3; 1.8; -0.9;0;0;1024;1024;1024;1024;0;0;0;0;0;0;0;69;;;;;;;0;32;54.623.964.674.476;192.452.105.896;0;;
419120;21/03/2025 07:57;-13.025.808;119.404.936;52.101.051.536;;;57.909.548.769.116;0;0.223694;64.459.975.816;1.101.870.114;27;0;156.349;63.934.516.153.516;11.235.072.538;11.408.394;64.459.975.816;0;0;0;199.2; 1.1; -0.8;0;0;1024;1024;1024;1024;0;0;0;0;0;0;0;69;;;;;;;0;32;57.909.548.769.116;52.101.051.536;0;;
419330;21/03/2025 07:57;-13.025.809;1.194.049.361;2.739.419.379;;;55.438.862.994.516;0;0.2460634;64.505.579.492;110.703.087.532;27;0;156.349;63.934.516.153.516;11.235.072.538;11.408.394;64.505.579.492;0;0;0;199.9; 1.4; -1.1;0;0;1024;1024;1024;1024;0;0;0;0;0;0;0;69;;;;;;;0;32;55.438.862.994.516;2.739.419.379;0;;
419530;21/03/2025 07:57;-1.302.581;1.194.049.362;51.667.324.488;;;57.866.176.064.316;0;0.111847;64.555.120.176;11.121.883.558;27;0;156.349;63.934.516.153.516;11.235.072.538;11.408.394;64.555.120.176;0;0;0;200.4; 1.3; -0.9;0;0;1024;1024;1024;1024;0;0;0;0;0;0;0;69;;;;;;;0;32;57.866.176.064.316;51.667.324.488;0;;
419730;21/03/2025 07:57;-1.302.581;1.194.049.363;60.249.673.844;;;58.724.410.999.916;0;0.1565858;64.324.805.208;111.583.664.988;27;0;156.349;63.934.516.153.516;11.235.072.538;11.408.394;64.555.120.176;0;0;0;200.1; 0.3; -0.8;0;0;1024;1024;1024;1024;0;0;0;0;0;0;0;69;;;;;;;0;32;58.724.410.999.916;60.249.673.844;0;;
419930;21/03/2025 07:57;-1.302.581;1.194.049.364;71.259.516.716;;;59.825.395.287.116;0;0.2460634;6.409.613.066;111.948.494.396;27;0;157.028;63.934.516.153.516;11.235.072.538;11.408.394;64.555.120.176;0;0;0;199.1; -0.4; -0.6;0;0;1024;1024;1024;1024;0;0;0;0;0;0;0;69;;;;;;;0;32;59.825.395.287.116;71.259.516.716;0;;
420130;21/03/2025 07:57;-13.025.808;1.194.049.366;575.623.378;;;58.455.677.395.516;0;0.1789552;63.070.540.076;112.980.318.576;27;0;157.028;63.934.516.153.516;11.235.072.538;11.408.394;64.555.120.176;0;0;0;198.2; -0.2; -0.6;0;0;1024;1024;1024;1024;0;0;0;0;0;0;0;69;;;;;;;0;32;58.455.677.395.516;575.623.378;0;;
420330;21/03/2025 07:57;-13.025.808;1.194.049.366;84.956.367.548;;;61.195.080.370.316;0;0.0223694;63.070.540.076;112.980.318.576;27;0;157.028;63.934.516.153.516;11.235.072.538;11.408.394;64.555.120.176;0;0;0;197.4; 0.3; -0.8;0;0;1024;1024;1024;1024;0;0;0;0;0;0;0;69;;;;;;;0;32;61.195.080.370.316;84.956.367.548;0;;
420530;21/03/2025 07:57;-13.025.807;1.194.049.367;164.711.619.444;;;54.346.559.809.956;0;0.0671082;62.557.744.784;113.496.066.624;27;0;157.028;63.934.516.153.516;11.235.072.538;11.408.394;64.555.120.176;0;0;0;196.6; 0.5; -1.1;0;0;1024;1024;1024;1024;0;0;0;0;0;0;0;69;;;;;;;0;32;54.346.559.809.956;164.711.619.444;0;;
420730;21/03/2025 07:57;-13.025.806;1.194.049.367;136.970.804.908;;;54.069.151.664.596;0;0.1342164;62.272.967.872;113.860.896.032;27;0;157.028;63.934.516.153.516;11.235.072.538;11.408.394;64.555.120.176;0;0;0;196.1;0; -1.3;0;0;1024;1024;1024;1024;0;0;0;0;0;0;0;69;;;;;;;0;32;54.069.151.664.596;136.970.804.908;0;;
420930;21/03/2025 07:57;-13.025.806;1.194.049.366;49.326.773.232;;;57.632.120.938.716;0;0.111847;62.502.298.588;11.422.572.544;27;0;155.521;63.934.516.153.516;11.235.072.538;11.408.394;64.555.120.176;0;0;0;195.6; -0.2; -1.7;0;0;1024;1024;1024;1024;0;0;0;0;0;0;0;69;;;;;;;0;32;57.632.120.938.716;49.326.773.232;0;;
421130;21/03/2025 07:57;-13.025.805;1.194.049.366;46.552.823.012;;;57.354.725.916.716;0;0.0447388;6.221.949.018;114.590.554.848;27;0;155.521;63.934.516.153.516;11.235.072.538;11.408.394;64.555.120.176;0;0;0;195.6; -0.6; -1.9;0;0;1024;1024;1024;1024;0;0;0;0;0;0;0;69;;;;;;;0;32;57.354.725.916.716;46.552.823.012;0;;
421330;21/03/2025 07:57;-13.025.804;1.194.049.365;9.310.531.794;;;62.009.975.409.516;0;0.223694;62.169.949.496;115.106.302.896;27;0;155.521;63.934.516.153.516;11.235.072.538;11.408.394;64.555.120.176;0;0;0;196.2; -1.6; -1.5;0;0;1024;1024;1024;1024;0;0;0;0;0;0;0;69;;;;;;;0;32;62.009.975.409.516;9.310.531.794;0;;
421520;21/03/2025 07:57;-13.025.806;1.194.049.364;46.552.823.012;;;57.354.725.916.716;0;0.2460634;62.964.568.944;115.922.247.804;27;0;155.521;63.934.516.153.516;11.235.072.538;11.408.394;64.555.120.176;0;0;0;197.3; -1.9; -1.1;0;0;1024;1024;1024;1024;0;0;0;0;0;0;0;69;;;;;;;0;32;57.354.725.916.716;46.552.823.012;0;;
421720;21/03/2025 07:57;-1.302.581;1.194.049.363;7.394.685.276;;;60.094.128.891.516;0;0.447388;64.324.805.208;117.426.512.944;27;0;155.521;63.934.516.153.516;11.235.072.538;11.408.394;64.555.120.176;0;0;0;198.3; 0.2; -1.1;0;0;1024;1024;1024;1024;0;0;0;0;0;0;0;69;;;;;;;0;32;60.094.128.891.516;7.394.685.276;0;;
421930;21/03/2025 07:57;-13.025.811;1.194.049.362;95.879.596.244;;;62.287.403.239.916;0;0.3802798;64.837.928.584;117.942.589.076;27;0;157.744;63.934.516.153.516;11.235.072.538;11.408.394;64.837.928.584;0;0;0;199.8; 1.1; -0.9;0;0;1024;1024;1024;1024;0;0;0;0;0;0;0;69;;;;;;;0;32;62.287.403.239.916;95.879.596.244;0;;
422130;21/03/2025 07:57;-13.025.814;119.404.936;60.683.072.808;;;58.767.750.896.316;0;0.4697574;66.147.639.912;119.257.877.832;27;0;157.744;63.934.516.153.516;11.235.072.538;11.408.394;66.147.639.912;0;0;0;200.8; 0.2; -1.2;0;0;1024;1024;1024;1024;0;0;0;0;0;0;0;69;;;;;;;0;32;58.767.750.896.316;60.683.072.808;0;;
422330;21/03/2025 07:57;-13.025.815;1.194.049.358;90.417.981.896;;;61.741.241.805.116;0;0.5144962;66.891.078.256;120.073.494.656;27;0;157.744;63.934.516.153.516;11.235.072.538;11.408.394;66.891.078.256;0;0;0;201; -0.4; -1.2;0;0;1024;1024;1024;1024;0;0;0;0;0;0;0;69;;;;;;;0;32;61.741.241.805.116;90.417.981.896;0;;
422520;21/03/2025 07:57;-13.025.818;1.194.049.358;247.067.593.208;;;55.170.119.547.596;0;0.447388;67.742.128.152;12.116.798.288;27;0;157.744;63.934.516.153.516;11.235.072.538;11.408.394;67.742.128.152;0;0;0;200.3; -0.3; -0.5;0;0;1024;1024;1024;1024;0;0;0;0;0;0;0;69;;;;;;;0;32;55.170.119.547.596;247.067.593.208;0;;
422720;21/03/2025 07:57;-13.025.821;1.194.049.358;52.101.051.536;;;57.909.548.769.116;0;0.3131716;68.600.395.896;122.262.471.104;27;0;157.744;63.934.516.153.516;11.235.072.538;11.408.394;68.600.395.896;0;0;0;198.7; 0.4; -0.2;0;0;1024;1024;1024;1024;0;0;0;0;0;0;0;69;;;;;;;0;32;57.909.548.769.116;52.101.051.536;0;;
422920;21/03/2025 07:57;-13.025.822;1.194.049.357;71.259.516.716;;;59.825.395.287.116;0;0.3131716;6.911.253.502;122.778.547.236;27;0;156.823;63.934.516.153.516;11.235.072.538;11.408.394;6.911.253.502;0;0;0;197.7; 0.9; -0.3;0;0;1024;1024;1024;1024;0;0;0;0;0;0;0;69;;;;;;;0;32;59.825.395.287.116;71.259.516.716;0;;
423130;21/03/2025 07:57;-13.025.824;1.194.049.357;7.672.080.298;;;60.371.523.913.516;0;0.223694;69.687.994.356;123.508.206.052;27;0;156.823;63.934.516.153.516;11.235.072.538;11.408.394;69.687.994.356;0;0;0;198; 1.8; -0.5;0;0;1024;1024;1024;1024;0;0;0;0;0;0;0;69;;;;;;;0;32;60.371.523.913.516;7.672.080.298;0;;
423330;21/03/2025 07:57;-13.025.826;1.194.049.356;-0.26873688524;;;52.430.706.730.276;0;0.335541;70.488.519.316;124.323.822.876;27;0;156.823;63.934.516.153.516;11.235.072.538;11.408.394;70.488.519.316;0;0;0;198.7; 1.6; -1.1;0;0;1024;1024;1024;1024;0;0;0;0;0;0;0;69;;;;;;;0;32;52.430.706.730.276;-0.26873688524;0;;
423530;21/03/2025 07:57;-13.025.827;1.194.049.354;37.016.733.468;;;56.401.116.962.316;0;0.2460634;7.122.375.556;125.139.767.784;27;0;156.823;63.934.516.153.516;11.235.072.538;11.408.394;7.122.375.556;0;0;0;199.6; 0.7; -1.7;0;0;1024;1024;1024;1024;0;0;0;0;0;0;0;69;;;;;;;0;32;56.401.116.962.316;37.016.733.468;0;;
423720;21/03/2025 07:57;-13.025.828;1.194.049.354;7.672.080.298;;;60.371.523.913.516;0;0.0447388;71.511.813.312;125.504.597.192;27;0;156.823;63.934.516.153.516;11.235.072.538;11.408.394;71.511.813.312;0;0;0;200.2; 0.8; -1.9;0;0;1024;1024;1024;1024;0;0;0;0;0;0;0;69;;;;;;;0;32;60.371.523.913.516;7.672.080.298;0;;
423920;21/03/2025 07:57;-13.025.828;1.194.049.354;68.485.238.412;;;59.547.967.456.716;0;0.0894776;71.511.813.312;125.504.597.192;27;0;157.065;63.934.516.153.516;11.235.072.538;11.408.394;71.511.813.312;0;0;0;199.9;1; -1.9;0;0;1024;1024;1024;1024;0;0;0;0;0;0;0;68;;;;;;;0;32;59.547.967.456.716;68.485.238.412;0;;
424130;21/03/2025 07:57;-13.025.828;1.194.049.356;71.259.516.716;;;59.825.395.287.116;0;0.0894776;7.106.791.566;126.233.927.924;27;0;157.065;63.934.516.153.516;11.235.072.538;11.408.394;71.511.813.312;0;0;0;198.9; 0.6; -2.3;0;0;1024;1024;1024;1024;0;0;0;0;0;0;0;68;;;;;;;0;32;59.825.395.287.116;71.259.516.716;0;;
424330;21/03/2025 07:57;-13.025.828;1.194.049.357;192.452.105.896;;;54.623.964.674.476;0;0.223694;70.847.443.212;126.598.757.332;27;0;157.065;63.934.516.153.516;11.235.072.538;11.408.394;71.511.813.312;0;0;0;197.9; 0.3; -2.1;0;0;1024;1024;1024;1024;0;0;0;0;0;0;0;68;;;;;;;0;32;54.623.964.674.476;192.452.105.896;0;;
424520;21/03/2025 07:57;-13.025.828;1.194.049.361;41.091.208.664;;;56.808.564.481.916;0;0.2684328;69.978.348.696;12.805.774.688;27;0;157.065;63.934.516.153.516;11.235.072.538;11.408.394;71.511.813.312;0;0;0;197.2; 0.1; -1.6;0;0;1024;1024;1024;1024;0;0;0;0;0;0;0;68;;;;;;;0;32;56.808.564.481.916;41.091.208.664;0;;
424720;21/03/2025 07:57;-13.025.829;1.194.049.365;-191.584.979.884;;;50.783.593.816.676;0;0.4026492;69.427.823.744;129.561.683.936;27;0;157.065;63.934.516.153.516;11.235.072.538;11.408.394;71.511.813.312;0;0;0;196.3; -0.2; -1.6;0;0;1024;1024;1024;1024;0;0;0;0;0;0;0;68;;;;;;;0;32;50.783.593.816.676;-191.584.979.884;0;;
424920;21/03/2025 07:57;-1.302.583;1.194.049.366;575.623.378;;;58.455.677.395.516;0;0.2908022;69.519.687.264;130.077.760.068;27;0;154.749;63.934.516.153.516;11.235.072.538;11.408.394;71.511.813.312;0;0;0;195.7; -0.1; -1.3;0;0;1024;1024;1024;1024;0;0;0;0;0;0;0;68;;;;;;;0;32;58.455.677.395.516;575.623.378;0;;
425120;21/03/2025 07:57;-1.302.583;1.194.049.371;110.096.460.216;;;53.800.408.217.676;0;0.3802798;68.502.954.948;13.190.125.094;27;0;154.749;63.934.516.153.516;11.235.072.538;11.408.394;71.511.813.312;0;0;0;195.7; 0.1; -1.3;0;0;1024;1024;1024;1024;0;0;0;0;0;0;0;68;;;;;;;0;32;53.800.408.217.676;110.096.460.216;0;;
425330;21/03/2025 07:57;-13.025.831;1.194.049.372;46.552.823.012;;;57.354.725.916.716;0;0.223694;68.609.910.332;132.417.327.072;27;0;154.749;63.934.516.153.516;11.235.072.538;11.408.394;71.511.813.312;0;0;0;196.9; 0.3; -1.9;0;0;1024;1024;1024;1024;0;0;0;0;0;0;0;68;;;;;;;0;32;57.354.725.916.716;46.552.823.012;0;;
425530;21/03/2025 07:57;-13.025.833;1.194.049.374;575.623.378;;;58.455.677.395.516;0;0.2908022;68.834.647.872;133.449.151.252;27;0;154.749;63.934.516.153.516;11.235.072.538;11.408.394;71.511.813.312;0;0;0;198.8; 0.4; -2.1;0;0;1024;1024;1024;1024;0;0;0;0;0;0;0;68;;;;;;;0;32;58.455.677.395.516;575.623.378;0;;
425720;21/03/2025 07:57;-13.025.835;1.194.049.376;2.739.419.379;;;55.438.862.994.516;0;0.3802798;69.074.149.192;134.480.975.432;27;0;154.749;63.934.516.153.516;11.235.072.538;11.408.394;71.511.813.312;0;0;0;200.5; 0.2; -2.2;0;0;1024;1024;1024;1024;0;0;0;0;0;0;0;68;;;;;;;0;32;55.438.862.994.516;2.739.419.379;0;;
425930;21/03/2025 07:57;-13.025.837;1.194.049.377;575.623.378;;;58.455.677.395.516;0;0.4697574;69.513.125.584;135.296.592.256;27;0;155.596;63.934.516.153.516;11.235.072.538;11.408.394;71.511.813.312;0;0;0;203.1; 0.2; -1.9;0;0;1024;1024;1024;1024;0;0;0;0;0;0;0;68;;;;;;;0;32;58.455.677.395.516;575.623.378;0;;
426120;21/03/2025 07:57;-13.025.838;119.404.938;37.450.132.432;;;56.444.456.858.716;0;0.2908022;69.279.529.776;1.364.501.356;27;0;155.596;63.934.516.153.516;11.235.072.538;11.408.394;71.511.813.312;0;0;0;205.5; 0.2; -2.1;0;0;1024;1024;1024;1024;0;0;0;0;0;0;0;68;;;;;;;0;32;56.444.456.858.716;37.450.132.432;0;;
426330;21/03/2025 07:57;-13.025.839;1.194.049.381;306.016.742.076;;;55.759.611.036.276;0;0.2460634;69.417.981.224;136.966.211.732;27;0;155.596;63.934.516.153.516;11.235.072.538;11.408.394;71.511.813.312;0;0;0;207.4; 0.1; -1.7;0;0;1024;1024;1024;1024;0;0;0;0;0;0;0;68;;;;;;;0;32;55.759.611.036.276;306.016.742.076;0;;
426530;21/03/2025 07:57;-13.025.841;1.194.049.383;63.023.952.148;;;59.001.838.830.316;0;0.335541;69.705.054.724;137.998.035.912;27;0;155.596;63.934.516.153.516;11.235.072.538;11.408.394;71.511.813.312;0;0;0;208.8; -0.3; -1.8;0;0;1024;1024;1024;1024;0;0;0;0;0;0;0;68;;;;;;;0;32;59.001.838.830.316;63.023.952.148;0;;
426720;21/03/2025 07:57;-13.025.844;1.194.049.386;41.091.208.664;;;56.808.564.481.916;0;0.3131716;70.162.075.736;13.954.560.814;27;0;155.596;63.934.516.153.516;11.235.072.538;11.408.394;71.511.813.312;0;0;0;209.8; -0.4; -1.8;0;0;1024;1024;1024;1024;0;0;0;0;0;0;0;68;;;;;;;0;32;56.808.564.481.916;41.091.208.664;0;;
426930;21/03/2025 07:57;-13.025.844;1.194.049.386;2.739.419.379;;;55.438.862.994.516;0;0.223694;70.162.075.736;13.954.560.814;27;0;156.396;63.934.516.153.516;11.235.072.538;11.408.394;71.511.813.312;0;0;0;211.9; -0.3; -2.1;0;0;1024;1024;1024;1024;0;0;0;0;0;0;0;67;;;;;;;0;32;55.438.862.994.516;2.739.419.379;0;;
427130;21/03/2025 07:57;-13.025.845;1.194.049.388;164.711.619.444;;;54.346.559.809.956;0;0.2684328;7.015.748.256;140.361.224.964;27;0;156.396;63.934.516.153.516;11.235.072.538;11.408.394;71.511.813.312;0;0;0;213.6; -0.2; -2.1;0;0;1024;1024;1024;1024;0;0;0;0;0;0;0;67;;;;;;;0;32;54.346.559.809.956;164.711.619.444;0;;
427320;21/03/2025 07:57;-13.025.848;1.194.049.388;0.55481957156;;;53.254.263.187.076;0;0.5144962;7.113.845.372;141.455.713.188;27;0;156.396;63.934.516.153.516;11.235.072.538;11.408.394;71.511.813.312;0;0;0;215.9; -0.1; -2.1;0;0;1024;1024;1024;1024;0;0;0;0;0;0;0;67;;;;;;;0;32;53.254.263.187.076;0.55481957156;0;;
427530;21/03/2025 07:57;-1.302.585;1.194.049.389;42.651.576.168;;;56.964.601.232.316;0;0.3131716;7.163.550.098;142.271.658.096;27;0;156.396;63.934.516.153.516;11.235.072.538;11.408.394;7.163.550.098;0;0;0;219.4; -0.1; -2.4;0;0;1024;1024;1024;1024;0;0;0;0;0;0;0;67;;;;;;;0;32;56.964.601.232.316;42.651.576.168;0;;
427730;21/03/2025 07:57;-13.025.855;119.404.939;32.855.644.096;;;55.985.008.025.116;0;0.3579104;73.130.579.768;144.131.894.376;27;0;156.396;63.934.516.153.516;11.235.072.538;11.408.394;73.130.579.768;0;0;0;222.1; 0.1; -3.4;0;0;1024;1024;1024;1024;0;0;0;0;0;0;0;67;;;;;;;0;32;55.985.008.025.116;32.855.644.096;0;;
427930;21/03/2025 07:57;-13.025.857;1.194.049.391;63.023.952.148;;;59.001.838.830.316;0;0.3802798;73.643.046.976;144.947.839.284;27;0;158.163;63.934.516.153.516;11.235.072.538;11.408.394;73.643.046.976;0;0;0;223.9;0; -3.4;0;0;1024;1024;1024;1024;0;0;0;0;0;0;0;68;;;;;;;0;32;59.001.838.830.316;63.023.952.148;0;;
428130;21/03/2025 07:57;-13.025.862;1.194.049.394;164.711.619.444;;;54.346.559.809.956;0;0.7605596;74.876.642.816;14.707.513.594;27;0;158.163;63.934.516.153.516;11.235.072.538;11.408.394;74.876.642.816;0;0;0;224.7; -0.6; -1.9;0;0;1024;1024;1024;1024;0;0;0;0;0;0;0;68;;;;;;;0;32;54.346.559.809.956;164.711.619.444;0;;
428330;21/03/2025 07:57;-13.025.865;1.194.049.395;46.552.823.012;;;57.354.725.916.716;0;0.6934514;757.463.935;148.228.679.284;27;0;158.163;63.934.516.153.516;11.235.072.538;11.408.394;757.463.935;0;0;0;224.4; -0.5; -0.6;0;0;1024;1024;1024;1024;0;0;0;0;0;0;0;68;;;;;;;0;32;57.354.725.916.716;46.552.823.012;0;;
428520;21/03/2025 07:57;-13.025.869;1.194.049.399;60.249.673.844;;;58.724.410.999.916;0;0.5368656;76.564.634.996;150.292.327.644;27;0;158.163;63.934.516.153.516;11.235.072.538;11.408.394;76.564.634.996;0;0;0;223.3; 0.2; 0.1;0;0;1024;1024;1024;1024;0;0;0;0;0;0;0;68;;;;;;;0;32;58.724.410.999.916;60.249.673.844;0;;
428720;21/03/2025 07:57;-13.025.875;11.940.494;164.711.619.444;;;54.346.559.809.956;0;0.6039738;78.486.879.152;152.511.815.904;27;0;158.163;63.934.516.153.516;11.235.072.538;11.408.394;78.486.879.152;0;0;0;222.5; 0.1; -0.7;0;0;1024;1024;1024;1024;0;0;0;0;0;0;0;68;;;;;;;0;32;54.346.559.809.956;164.711.619.444;0;;
428930;21/03/2025 07:57;-13.025.877;1.194.049.403;48.893.374.268;;;57.588.781.042.316;0;0.5368656;78.806.104.884;153.826.776.576;27;0;153.047;63.934.516.153.516;11.235.072.538;11.408.394;78.806.104.884;0;0;0;222.9; -0.1; -1.8;0;0;1024;1024;1024;1024;0;0;0;0;0;0;0;67;;;;;;;0;32;57.588.781.042.316;48.893.374.268;0;;
429130;21/03/2025 07:57;-13.025.881;1.194.049.405;35.629.594.316;;;56.262.403.047.116;0;0.447388;79.953.414.632;155.458.666.392;27;0;153.047;63.934.516.153.516;11.235.072.538;11.408.394;79.953.414.632;0;0;0;223.9; -0.2; -1.9;0;0;1024;1024;1024;1024;0;0;0;0;0;0;0;67;;;;;;;0;32;56.262.403.047.116;35.629.594.316;0;;
429330;21/03/2025 07:57;-13.025.884;1.194.049.406;32.855.644.096;;;55.985.008.025.116;0;0.6263432;80.880.251.932;156.612.209.736;27;0;153.047;63.934.516.153.516;11.235.072.538;11.408.394;80.880.251.932;0;0;0;224.6; -0.2; -1.9;0;0;1024;1024;1024;1024;0;0;0;0;0;0;0;67;;;;;;;0;32;55.985.008.025.116;32.855.644.096;0;;
429520;21/03/2025 07:57;-13.025.887;1.194.049.408;575.623.378;;;58.455.677.395.516;0;0.4921268;81.704.727.024;157.927.498.492;27;0;153.047;63.934.516.153.516;11.235.072.538;11.408.394;81.704.727.024;0;0;0;225.5; -0.4; -2.1;0;0;1024;1024;1024;1024;0;0;0;0;0;0;0;67;;;;;;;0;32;58.455.677.395.516;575.623.378;0;;
429720;21/03/2025 07:57;-13.025.891;119.404.941;106.802.496.856;;;63.379.693.301.116;0;0.4697574;8.289.206.302;159.559.060.224;27;0;153.047;63.934.516.153.516;11.235.072.538;11.408.394;8.289.206.302;0;0;0;226.8; 0.2; -1.7;0;0;1024;1024;1024;1024;0;0;0;0;0;0;0;67;;;;;;;0;32;63.379.693.301.116;106.802.496.856;0;;
429920;21/03/2025 07:57;-13.025.893;119.404.941;32.855.644.096;;;55.985.008.025.116;0;0.4026492;8.359.252.236;16.028.871.904;27;0;155.131;63.934.516.153.516;11.235.072.538;11.408.394;8.359.252.236;0;0;0;229.2; 0.3; -1.6;0;0;1024;1024;1024;1024;0;0;0;0;0;0;0;67;;;;;;;0;32;55.985.008.025.116;32.855.644.096;0;;
430130;21/03/2025 07:57;-130.259;119.404.941;44.645.342.636;;;57.163.977.879.116;0;0.6934514;86.047.903.016;16.284.285.298;27;0;155.131;63.934.516.153.516;11.235.072.538;11.408.394;86.047.903.016;0;0;0;233.5; 0.6; -2.1;0;0;1024;1024;1024;1024;0;0;0;0;0;0;0;67;;;;;;;0;32;57.163.977.879.116;44.645.342.636;0;;
430330;21/03/2025 07:57;-13.025.901;119.404.941;192.452.105.896;;;54.623.964.674.476;0;0.4250186;8.639.928.098;163.207.682.388;27;0;155.131;63.934.516.153.516;11.235.072.538;11.408.394;8.639.928.098;0;0;0;236; 0.6; -2.4;0;0;1024;1024;1024;1024;0;0;0;0;0;0;0;67;;;;;;;0;32;54.623.964.674.476;192.452.105.896;0;;
430520;21/03/2025 07:57;-13.025.906;1.194.049.412;192.452.105.896;;;54.623.964.674.476;0;0.5144962;87.966.538.248;16.517.224.938;27;0;155.131;63.934.516.153.516;11.235.072.538;11.408.394;87.966.538.248;0;0;0;239.2;0; -2.2;0;0;1024;1024;1024;1024;0;0;0;0;0;0;0;67;;;;;;;0;32;54.623.964.674.476;192.452.105.896;0;;
430720;21/03/2025 07:57;-13.025.908;1.194.049.413;49.326.773.232;;;57.632.120.938.716;0;0.335541;88.579.727.244;165.988.194.288;27;0;155.131;63.934.516.153.516;11.235.072.538;11.408.394;88.579.727.244;0;0;0;242.8; 0.5; -1.7;0;0;1024;1024;1024;1024;0;0;0;0;0;0;0;67;;;;;;;0;32;57.632.120.938.716;49.326.773.232;0;;
430930;21/03/2025 07:57;-13.025.912;1.194.049.414;192.452.105.896;;;54.623.964.674.476;0;0.4250186;89.903.546.184;167.492.459.428;27;0;157.028;63.934.516.153.516;11.235.072.538;11.408.394;89.903.546.184;0;0;0;247.7; -0.6; -1.7;0;0;1024;1024;1024;1024;0;0;0;0;0;0;0;66;;;;;;;0;32;54.623.964.674.476;192.452.105.896;0;;
431130;21/03/2025 07:57;-13.025.915;1.194.049.416;219.326.450.588;;;54.892.708.121.396;0;0.3579104;90.792.653.824;168.807.748.184;27;0;157.028;63.934.516.153.516;11.235.072.538;11.408.394;90.792.653.824;0;0;0;252.2; -0.8; -1.9;0;0;1024;1024;1024;1024;0;0;0;0;0;0;0;66;;;;;;;0;32;54.892.708.121.396;219.326.450.588;0;;
431320;21/03/2025 07:57;-13.025.917;1.194.049.416;35.629.594.316;;;56.262.403.047.116;0;0.3579104;915.026.276;169.537.407;27;0;157.028;63.934.516.153.516;11.235.072.538;11.408.394;915.026.276;0;0;0;257.5; -0.5;-2;0;0;1024;1024;1024;1024;0;0;0;0;0;0;0;66;;;;;;;0;32;56.262.403.047.116;35.629.594.316;0;;
431530;21/03/2025 07:57;-13.025.921;1.194.049.416;33.375.657.236;;;56.037.009.339.116;0;0.6263432;92.922.903.236;170.997.052.716;27;0;157.028;63.934.516.153.516;11.235.072.538;11.408.394;92.922.903.236;0;0;0;262.7; -0.7; -1.8;0;0;1024;1024;1024;1024;0;0;0;0;0;0;0;66;;;;;;;0;32;56.037.009.339.116;33.375.657.236;0;;
431730;21/03/2025 07:57;-13.025.923;1.194.049.418;192.452.105.896;;;54.623.964.674.476;0;0.2013246;93.471.459.684;172.028.876.896;27;0;157.028;63.934.516.153.516;11.235.072.538;11.408.394;93.471.459.684;0;0;0;266.2; -1.2; -2.2;0;0;1024;1024;1024;1024;0;0;0;0;0;0;0;66;;;;;;;0;32;54.623.964.674.476;192.452.105.896;0;;
431930;21/03/2025 07:57;-13.025.924;119.404.942;164.711.619.444;;;54.346.559.809.956;0;0.4697574;93.671.590.924;17.284.449.372;27;0;156.861;63.934.516.153.516;11.235.072.538;11.408.394;93.671.590.924;0;0;0;268.2; -1.1; -2.5;0;0;1024;1024;1024;1024;0;0;0;0;0;0;0;67;;;;;;;0;32;54.346.559.809.956;164.711.619.444;0;;
432130;21/03/2025 07:57;-13.025.926;1.194.049.421;192.452.105.896;;;54.623.964.674.476;0;0.1565858;9.430.938.622;173.660.110.544;27;0;156.861;63.934.516.153.516;11.235.072.538;11.408.394;9.430.938.622;0;0;0;269.1; -1.2;-3;0;0;1024;1024;1024;1024;0;0;0;0;0;0;0;67;;;;;;;0;32;54.623.964.674.476;192.452.105.896;0;;
432320;21/03/2025 07:57;-13.025.928;1.194.049.422;110.096.460.216;;;53.800.408.217.676;0;0.3802798;94.950.462.356;174.476.055.452;27;0;156.861;63.934.516.153.516;11.235.072.538;11.408.394;94.950.462.356;0;0;0;269.9; -1.2; -3.8;0;0;1024;1024;1024;1024;0;0;0;0;0;0;0;67;;;;;;;0;32;53.800.408.217.676;110.096.460.216;0;;
432520;21/03/2025 07:57;-13.025.932;1.194.049.422;-109.229.334.204;;;51.607.150.273.476;0;0.6039738;96.380.908.596;175.935.373.084;27;0;156.861;63.934.516.153.516;11.235.072.538;11.408.394;96.380.908.596;0;0;0;270.2; -1.3; -4.4;0;0;1024;1024;1024;1024;0;0;0;0;0;0;0;67;;;;;;;0;32;51.607.150.273.476;-109.229.334.204;0;;
432720;21/03/2025 07:57;-13.025.937;1.194.049.423;247.067.593.208;;;55.170.119.547.596;0;0.447388;98.100.068.756;177.795.609.364;27;0;156.861;63.934.516.153.516;11.235.072.538;11.408.394;98.100.068.756;0;0;0;270.3; -1.1; -3.7;0;0;1024;1024;1024;1024;0;0;0;0;0;0;0;67;;;;;;;0;32;55.170.119.547.596;247.067.593.208;0;;
432930;21/03/2025 07:57;-13.025.939;1.194.049.423;301.682.096.268;;;55.716.264.578.196;0;0.4697574;98.816.604.212;17.852.526.818;27;0;156.926;63.934.516.153.516;11.235.072.538;11.408.394;98.816.604.212;0;0;0;270.5;-1; -3.4;0;0;1024;1024;1024;1024;0;0;0;0;0;0;0;67;;;;;;;0;32;55.716.264.578.196;301.682.096.268;0;;
433130;21/03/2025 07:57;-13.025.946;1.194.049.423;301.682.096.268;;;55.716.264.578.196;0;0.7605596;101.326.118.728;18.107.940.212;27;0;156.926;63.934.516.153.516;11.235.072.538;11.408.394;101.326.118.728;0;0;0;270.8; -0.9; -3.7;0;0;1024;1024;1024;1024;0;0;0;0;0;0;0;67;;;;;;;0;32;55.716.264.578.196;301.682.096.268;0;;
433320;21/03/2025 07:57;-1.302.595;1.194.049.424;5.478.838.758;;;58.178.282.373.516;0;0.671082;102.695.541.344;18.258.366.726;27;0;156.926;63.934.516.153.516;11.235.072.538;11.408.394;102.695.541.344;0;0;0;271.2; -0.8; -3.7;0;0;1024;1024;1024;1024;0;0;0;0;0;0;0;67;;;;;;;0;32;58.178.282.373.516;5.478.838.758;0;;
433530;21/03/2025 07:57;-13.025.956;1.194.049.423;7.394.685.276;;;60.094.128.891.516;0;0.6487126;10.491.470.152;184.802.827.436;27;0;156.926;63.934.516.153.516;11.235.072.538;11.408.394;10.491.470.152;0;0;0;271.5; -0.9; -3.2;0;0;1024;1024;1024;1024;0;0;0;0;0;0;0;67;;;;;;;0;32;60.094.128.891.516;7.394.685.276;0;;
433730;21/03/2025 07:57;-13.025.965;1.194.049.423;71.259.516.716;;;59.825.395.287.116;0;0.8724066;10.814.796.934;188.086.620.192;27;0;156.926;63.934.516.153.516;11.235.072.538;11.408.394;10.814.796.934;0;0;0;271.2;-1; -2.9;0;0;1024;1024;1024;1024;0;0;0;0;0;0;0;67;;;;;;;0;32;59.825.395.287.116;71.259.516.716;0;;
433930;21/03/2025 07:57;-13.025.968;1.194.049.424;46.552.823.012;;;57.354.725.916.716;0;0.6039738;109.164.701.656;189.240.163.536;27;0;155.652;63.934.516.153.516;11.235.072.538;11.408.394;109.164.701.656;0;0;0;270.2;-1; -3.1;0;0;1024;1024;1024;1024;0;0;0;0;0;0;0;66;;;;;;;0;32;57.354.725.916.716;46.552.823.012;0;;
434120;21/03/2025 07:57;-13.025.977;1.194.049.423;50.280.185.336;;;57.727.462.149.116;0;0.894776;112.463.258.192;1.925.442.975;27;0;155.652;63.934.516.153.516;11.235.072.538;11.408.394;112.463.258.192;0;0;0;269; -0.9; -3.3;0;0;1024;1024;1024;1024;0;0;0;0;0;0;0;66;;;;;;;0;32;57.727.462.149.116;50.280.185.336;0;;
434330;21/03/2025 07:57;-13.025.982;1.194.049.424;48.893.374.268;;;57.588.781.042.316;0;0.9842536;114.204.071.896;19.440.453.378;27;0;155.652;63.934.516.153.516;11.235.072.538;11.408.394;114.204.071.896;0;0;0;266.5; -0.9; -3.4;0;0;1024;1024;1024;1024;0;0;0;0;0;0;0;66;;;;;;;0;32;57.588.781.042.316;48.893.374.268;0;;
434530;21/03/2025 07:57;-13.025.992;1.194.049.425;49.326.773.232;;;57.632.120.938.716;0;0.9618842;117.751.316.104;198.071.200.564;27;0;155.652;63.934.516.153.516;11.235.072.538;11.408.394;117.751.316.104;0;0;0;264.5; -0.8; -2.9;0;0;1024;1024;1024;1024;0;0;0;0;0;0;0;66;;;;;;;0;32;57.632.120.938.716;49.326.773.232;0;;
434720;21/03/2025 07:57;-13.026;1.194.049.425;95.879.596.244;;;62.287.403.239.916;0;0.6263432;120.637.142.968;200.989.835.828;27;0;155.652;63.934.516.153.516;11.235.072.538;11.408.394;120.637.142.968;0;0;0;263.1; -0.8; -2.2;0;0;1024;1024;1024;1024;0;0;0;0;0;0;0;66;;;;;;;0;32;62.287.403.239.916;95.879.596.244;0;;
434930;21/03/2025 07:57;-13.026.005;1.194.049.425;43.865.486.968;;;57.085.992.312.316;0;0.9395148;122.441.604.968;202.814.310.952;27;0;153.717;63.934.516.153.516;11.235.072.538;11.408.394;122.441.604.968;0;0;0;262;-1; -2.6;0;0;1024;1024;1024;1024;0;0;0;0;0;0;0;66;;;;;;;0;32;57.085.992.312.316;43.865.486.968;0;;
435120;21/03/2025 07:57;-13.026.016;1.194.049.422;60.249.673.844;;;58.724.410.999.916;0;11.408.394;126.572.510.612;206.974.087.988;27;0;153.717;63.934.516.153.516;11.235.072.538;11.408.394;126.572.510.612;0;0;0;261.4; -1.3; -2.5;0;0;1024;1024;1024;1024;0;0;0;0;0;0;0;66;;;;;;;0;32;58.724.410.999.916;60.249.673.844;0;;
435320;21/03/2025 07:57;-1.302.602;1.194.049.422;301.682.096.268;;;55.716.264.578.196;0;0.8724066;128.015.752.128;20.843.340.562;27;0;153.717;63.934.516.153.516;11.235.072.538;11.408.394;128.015.752.128;0;0;0;260.8; -1.2;-2;0;0;1024;1024;1024;1024;0;0;0;0;0;0;0;66;;;;;;;0;32;55.716.264.578.196;301.682.096.268;0;;
435530;21/03/2025 07:57;-1.302.603;1.194.049.421;50.887.140.736;;;57.788.157.689.116;0;0.894776;13.167.815.382;212.100.072.404;27;0;153.717;63.934.516.153.516;11.235.072.538;11.408.394;13.167.815.382;0;0;0;260.2; -0.3; -2.1;0;0;1024;1024;1024;1024;0;0;0;0;0;0;0;66;;;;;;;0;32;57.788.157.689.116;50.887.140.736;0;;
435720;21/03/2025 07:57;-1.302.604;1.194.049.419;46.552.823.012;;;57.354.725.916.716;0;10.513.618;135.394.361.288;215.820.873.048;27;0;153.717;63.934.516.153.516;11.235.072.538;11.408.394;135.394.361.288;0;0;0;259.6; -0.3; -2.2;0;0;1024;1024;1024;1024;0;0;0;0;0;0;0;66;;;;;;;0;32;57.354.725.916.716;46.552.823.012;0;;
435920;21/03/2025 07:57;-13.026.043;119.404.942;63.023.952.148;;;59.001.838.830.316;0;0.6263432;136.423.560.796;216.974.744.476;27;0;156.721;63.934.516.153.516;11.235.072.538;11.408.394;136.423.560.796;0;0;0;259.1; -0.6;-2;0;0;1024;1024;1024;1024;0;0;0;0;0;0;0;65;;;;;;;0;32;59.001.838.830.316;63.023.952.148;0;;
436130;21/03/2025 07:57;-13.026.052;119.404.942;5.478.838.758;;;58.178.282.373.516;0;0.9171454;139.673.888.984;220.258.209.148;27;0;156.721;63.934.516.153.516;11.235.072.538;11.408.394;139.673.888.984;0;0;0;260.4; -0.6;-2;0;0;1024;1024;1024;1024;0;0;0;0;0;0;0;65;;;;;;;0;32;58.178.282.373.516;5.478.838.758;0;;
436330;21/03/2025 07:57;-13.026.057;1.194.049.419;71.259.516.716;;;59.825.395.287.116;0;0.8500372;141.531.172.508;222.118.445.428;27;0;156.721;63.934.516.153.516;11.235.072.538;11.408.394;141.531.172.508;0;0;0;263; -0.5; -2.5;0;0;1024;1024;1024;1024;0;0;0;0;0;0;0;65;;;;;;;0;32;59.825.395.287.116;71.259.516.716;0;;
436530;21/03/2025 07:57;-13.026.064;1.194.049.417;68.485.238.412;;;59.547.967.456.716;0;0.8052984;144.163.062.356;224.774.613.492;27;0;156.721;63.934.516.153.516;11.235.072.538;11.408.394;144.163.062.356;0;0;0;266.5; -0.5; -2.2;0;0;1024;1024;1024;1024;0;0;0;0;0;0;0;65;;;;;;;0;32;59.547.967.456.716;68.485.238.412;0;;
436720;21/03/2025 07:57;-13.026.072;1.194.049.416;7.394.685.276;;;60.094.128.891.516;0;0.6487126;147.104.007.332;227.716.214.636;27;0;156.721;63.934.516.153.516;11.235.072.538;11.408.394;147.104.007.332;0;0;0;269.7; -0.4; -2.2;0;0;1024;1024;1024;1024;0;0;0;0;0;0;0;65;;;;;;;0;32;60.094.128.891.516;7.394.685.276;0;;
436920;21/03/2025 07:57;-13.026.074;1.194.049.416;47.072.836.152;;;57.406.727.230.716;0;0.3802798;147.826.120.216;228.445.873.452;27;0;157.019;63.934.516.153.516;11.235.072.538;11.408.394;147.826.120.216;0;0;0;273.7; -0.2; -1.9;0;0;1024;1024;1024;1024;0;0;0;0;0;0;0;65;;;;;;;0;32;57.406.727.230.716;47.072.836.152;0;;
437130;21/03/2025 07:57;-13.026.081;1.194.049.416;98.653.546.464;;;62.564.798.261.916;0;0.5368656;15.035.433.552;230.999.679.308;27;0;157.019;63.934.516.153.516;11.235.072.538;11.408.394;15.035.433.552;0;0;0;278.1; -0.4; -1.4;0;0;1024;1024;1024;1024;0;0;0;0;0;0;0;65;;;;;;;0;32;62.564.798.261.916;98.653.546.464;0;;
437330;21/03/2025 07:57;-13.026.084;1.194.049.416;3.840.387.262;;;56.539.830.877.516;0;0.6487126;151.437.996.972;232.094.495.616;27;0;157.019;63.934.516.153.516;11.235.072.538;11.408.394;151.437.996.972;0;0;0;280.8; -0.7; -1.5;0;0;1024;1024;1024;1024;0;0;0;0;0;0;0;65;;;;;;;0;32;56.539.830.877.516;3.840.387.262;0;;
437530;21/03/2025 07:57;-1.302.609;1.194.049.417;68.485.238.412;;;59.547.967.456.716;0;0.671082;153.556.107.276;234.313.655.792;27;0;157.019;63.934.516.153.516;11.235.072.538;11.408.394;153.556.107.276;0;0;0;282.4; -0.9; -1.8;0;0;1024;1024;1024;1024;0;0;0;0;0;0;0;65;;;;;;;0;32;59.547.967.456.716;68.485.238.412;0;;
437720;21/03/2025 07:57;-13.026.097;1.194.049.418;82.182.417.328;;;60.917.685.348.316;0;0.6263432;156.038.718.904;236.893.380.284;27;0;157.019;63.934.516.153.516;11.235.072.538;11.408.394;156.038.718.904;0;0;0;283.9; -1.5; -1.5;0;0;1024;1024;1024;1024;0;0;0;0;0;0;0;65;;;;;;;0;32;60.917.685.348.316;82.182.417.328;0;;
437910;21/03/2025 07:57;-13.026.098;1.194.049.418;87.644.031.676;;;61.463.846.783.116;0;0.2684328;156.400.595.556;237.258.537.776;27;0;15.435;63.934.516.153.516;11.235.072.538;11.408.394;156.400.595.556;0;0;0;285.2; -2.3; -0.6;0;0;1024;1024;1024;1024;0;0;0;0;0;0;0;65;;;;;;;0;32;61.463.846.783.116;87.644.031.676;0;;
438130;21/03/2025 07:57;-13.026.102;1.194.049.418;4.230.479.138;;;56.929.922.753.516;0;0.3131716;157.847.445.996;238.717.855.408;27;0;15.435;63.934.516.153.516;11.235.072.538;11.408.394;157.847.445.996;0;0;0;287.2; -2.4; -0.3;0;0;1024;1024;1024;1024;0;0;0;0;0;0;0;65;;;;;;;0;32;56.929.922.753.516;4.230.479.138;0;;
